[
  {
    "from_slug": "montgomery-al",
    "from_name": "Montgomery, AL",
    "from_lat": 32.3792,
    "from_lon": -86.3077,
    "to_slug": "juneau-ak",
    "to_name": "Juneau, AK",
    "to_lat": 58.3019,
    "to_lon": -134.4197,
    "miles": 3704,
    "hours": 67,
    "mins": 20
  },
  {
    "from_slug": "montgomery-al",
    "from_name": "Montgomery, AL",
    "from_lat": 32.3792,
    "from_lon": -86.3077,
    "to_slug": "phoenix-az",
    "to_name": "Phoenix, AZ",
    "to_lat": 33.4484,
    "to_lon": -112.074,
    "miles": 1940,
    "hours": 35,
    "mins": 16
  },
  {
    "from_slug": "montgomery-al",
    "from_name": "Montgomery, AL",
    "from_lat": 32.3792,
    "from_lon": -86.3077,
    "to_slug": "little-rock-ar",
    "to_name": "Little Rock, AR",
    "to_lat": 34.7465,
    "to_lon": -92.2896,
    "miles": 495,
    "hours": 9,
    "mins": 0
  },
  {
    "from_slug": "montgomery-al",
    "from_name": "Montgomery, AL",
    "from_lat": 32.3792,
    "from_lon": -86.3077,
    "to_slug": "sacramento-ca",
    "to_name": "Sacramento, CA",
    "to_lat": 38.5816,
    "to_lon": -121.4944,
    "miles": 2616,
    "hours": 47,
    "mins": 33
  },
  {
    "from_slug": "montgomery-al",
    "from_name": "Montgomery, AL",
    "from_lat": 32.3792,
    "from_lon": -86.3077,
    "to_slug": "denver-co",
    "to_name": "Denver, CO",
    "to_lat": 39.7392,
    "to_lon": -104.9903,
    "miles": 1505,
    "hours": 27,
    "mins": 21
  },
  {
    "from_slug": "montgomery-al",
    "from_name": "Montgomery, AL",
    "from_lat": 32.3792,
    "from_lon": -86.3077,
    "to_slug": "hartford-ct",
    "to_name": "Hartford, CT",
    "to_lat": 41.7658,
    "to_lon": -72.6734,
    "miles": 1287,
    "hours": 23,
    "mins": 23
  },
  {
    "from_slug": "montgomery-al",
    "from_name": "Montgomery, AL",
    "from_lat": 32.3792,
    "from_lon": -86.3077,
    "to_slug": "dover-de",
    "to_name": "Dover, DE",
    "to_lat": 39.1582,
    "to_lon": -75.5244,
    "miles": 992,
    "hours": 18,
    "mins": 2
  },
  {
    "from_slug": "montgomery-al",
    "from_name": "Montgomery, AL",
    "from_lat": 32.3792,
    "from_lon": -86.3077,
    "to_slug": "tallahassee-fl",
    "to_name": "Tallahassee, FL",
    "to_lat": 30.4383,
    "to_lon": -84.2807,
    "miles": 233,
    "hours": 4,
    "mins": 14
  },
  {
    "from_slug": "montgomery-al",
    "from_name": "Montgomery, AL",
    "from_lat": 32.3792,
    "from_lon": -86.3077,
    "to_slug": "atlanta-ga",
    "to_name": "Atlanta, GA",
    "to_lat": 33.749,
    "to_lon": -84.388,
    "miles": 189,
    "hours": 3,
    "mins": 26
  },
  {
    "from_slug": "montgomery-al",
    "from_name": "Montgomery, AL",
    "from_lat": 32.3792,
    "from_lon": -86.3077,
    "to_slug": "boise-id",
    "to_name": "Boise, ID",
    "to_lat": 43.615,
    "to_lon": -116.2023,
    "miles": 2327,
    "hours": 42,
    "mins": 18
  },
  {
    "from_slug": "montgomery-al",
    "from_name": "Montgomery, AL",
    "from_lat": 32.3792,
    "from_lon": -86.3077,
    "to_slug": "springfield-il",
    "to_name": "Springfield, IL",
    "to_lat": 39.7817,
    "to_lon": -89.6501,
    "miles": 707,
    "hours": 12,
    "mins": 51
  },
  {
    "from_slug": "montgomery-al",
    "from_name": "Montgomery, AL",
    "from_lat": 32.3792,
    "from_lon": -86.3077,
    "to_slug": "indianapolis-in",
    "to_name": "Indianapolis, IN",
    "to_lat": 39.7684,
    "to_lon": -86.1581,
    "miles": 663,
    "hours": 12,
    "mins": 3
  },
  {
    "from_slug": "montgomery-al",
    "from_name": "Montgomery, AL",
    "from_lat": 32.3792,
    "from_lon": -86.3077,
    "to_slug": "des-moines-ia",
    "to_name": "Des Moines, IA",
    "to_lat": 41.5868,
    "to_lon": -93.625,
    "miles": 978,
    "hours": 17,
    "mins": 46
  },
  {
    "from_slug": "montgomery-al",
    "from_name": "Montgomery, AL",
    "from_lat": 32.3792,
    "from_lon": -86.3077,
    "to_slug": "topeka-ks",
    "to_name": "Topeka, KS",
    "to_lat": 39.0473,
    "to_lon": -95.6752,
    "miles": 907,
    "hours": 16,
    "mins": 29
  },
  {
    "from_slug": "montgomery-al",
    "from_name": "Montgomery, AL",
    "from_lat": 32.3792,
    "from_lon": -86.3077,
    "to_slug": "frankfort-ky",
    "to_name": "Frankfort, KY",
    "to_lat": 38.2009,
    "to_lon": -84.8733,
    "miles": 533,
    "hours": 9,
    "mins": 41
  },
  {
    "from_slug": "montgomery-al",
    "from_name": "Montgomery, AL",
    "from_lat": 32.3792,
    "from_lon": -86.3077,
    "to_slug": "baton-rouge-la",
    "to_name": "Baton Rouge, LA",
    "to_lat": 30.4515,
    "to_lon": -91.1871,
    "miles": 412,
    "hours": 7,
    "mins": 29
  },
  {
    "from_slug": "montgomery-al",
    "from_name": "Montgomery, AL",
    "from_lat": 32.3792,
    "from_lon": -86.3077,
    "to_slug": "augusta-me",
    "to_name": "Augusta, ME",
    "to_lat": 44.3106,
    "to_lon": -69.7795,
    "miles": 1576,
    "hours": 28,
    "mins": 39
  },
  {
    "from_slug": "montgomery-al",
    "from_name": "Montgomery, AL",
    "from_lat": 32.3792,
    "from_lon": -86.3077,
    "to_slug": "annapolis-md",
    "to_name": "Annapolis, MD",
    "to_lat": 38.9784,
    "to_lon": -76.4922,
    "miles": 928,
    "hours": 16,
    "mins": 52
  },
  {
    "from_slug": "montgomery-al",
    "from_name": "Montgomery, AL",
    "from_lat": 32.3792,
    "from_lon": -86.3077,
    "to_slug": "boston-ma",
    "to_name": "Boston, MA",
    "to_lat": 42.3601,
    "to_lon": -71.0589,
    "miles": 1406,
    "hours": 25,
    "mins": 33
  },
  {
    "from_slug": "montgomery-al",
    "from_name": "Montgomery, AL",
    "from_lat": 32.3792,
    "from_lon": -86.3077,
    "to_slug": "lansing-mi",
    "to_name": "Lansing, MI",
    "to_lat": 42.7325,
    "to_lon": -84.5555,
    "miles": 938,
    "hours": 17,
    "mins": 3
  },
  {
    "from_slug": "montgomery-al",
    "from_name": "Montgomery, AL",
    "from_lat": 32.3792,
    "from_lon": -86.3077,
    "to_slug": "saint-paul-mn",
    "to_name": "Saint Paul, MN",
    "to_lat": 44.9537,
    "to_lon": -93.09,
    "miles": 1224,
    "hours": 22,
    "mins": 15
  },
  {
    "from_slug": "montgomery-al",
    "from_name": "Montgomery, AL",
    "from_lat": 32.3792,
    "from_lon": -86.3077,
    "to_slug": "jackson-ms",
    "to_name": "Jackson, MS",
    "to_lat": 32.2988,
    "to_lon": -90.1848,
    "miles": 294,
    "hours": 5,
    "mins": 20
  },
  {
    "from_slug": "montgomery-al",
    "from_name": "Montgomery, AL",
    "from_lat": 32.3792,
    "from_lon": -86.3077,
    "to_slug": "jefferson-city-mo",
    "to_name": "Jefferson City, MO",
    "to_lat": 38.5767,
    "to_lon": -92.1735,
    "miles": 702,
    "hours": 12,
    "mins": 45
  },
  {
    "from_slug": "montgomery-al",
    "from_name": "Montgomery, AL",
    "from_lat": 32.3792,
    "from_lon": -86.3077,
    "to_slug": "helena-mt",
    "to_name": "Helena, MT",
    "to_lat": 46.5891,
    "to_lon": -112.0391,
    "miles": 2177,
    "hours": 39,
    "mins": 34
  },
  {
    "from_slug": "montgomery-al",
    "from_name": "Montgomery, AL",
    "from_lat": 32.3792,
    "from_lon": -86.3077,
    "to_slug": "lincoln-ne",
    "to_name": "Lincoln, NE",
    "to_lat": 40.8258,
    "to_lon": -96.6852,
    "miles": 1064,
    "hours": 19,
    "mins": 20
  },
  {
    "from_slug": "montgomery-al",
    "from_name": "Montgomery, AL",
    "from_lat": 32.3792,
    "from_lon": -86.3077,
    "to_slug": "carson-city-nv",
    "to_name": "Carson City, NV",
    "to_lat": 39.1638,
    "to_lon": -119.7674,
    "miles": 2498,
    "hours": 45,
    "mins": 25
  },
  {
    "from_slug": "montgomery-al",
    "from_name": "Montgomery, AL",
    "from_lat": 32.3792,
    "from_lon": -86.3077,
    "to_slug": "concord-nh",
    "to_name": "Concord, NH",
    "to_lat": 43.2081,
    "to_lon": -71.5376,
    "miles": 1426,
    "hours": 25,
    "mins": 55
  },
  {
    "from_slug": "montgomery-al",
    "from_name": "Montgomery, AL",
    "from_lat": 32.3792,
    "from_lon": -86.3077,
    "to_slug": "trenton-nj",
    "to_name": "Trenton, NJ",
    "to_lat": 40.2206,
    "to_lon": -74.7597,
    "miles": 1091,
    "hours": 19,
    "mins": 50
  },
  {
    "from_slug": "montgomery-al",
    "from_name": "Montgomery, AL",
    "from_lat": 32.3792,
    "from_lon": -86.3077,
    "to_slug": "santa-fe-nm",
    "to_name": "Santa Fe, NM",
    "to_lat": 35.687,
    "to_lon": -105.9378,
    "miles": 1488,
    "hours": 27,
    "mins": 3
  },
  {
    "from_slug": "montgomery-al",
    "from_name": "Montgomery, AL",
    "from_lat": 32.3792,
    "from_lon": -86.3077,
    "to_slug": "albany-ny",
    "to_name": "Albany, NY",
    "to_lat": 42.6526,
    "to_lon": -73.7562,
    "miles": 1282,
    "hours": 23,
    "mins": 18
  },
  {
    "from_slug": "montgomery-al",
    "from_name": "Montgomery, AL",
    "from_lat": 32.3792,
    "from_lon": -86.3077,
    "to_slug": "raleigh-nc",
    "to_name": "Raleigh, NC",
    "to_lat": 35.7796,
    "to_lon": -78.6382,
    "miles": 646,
    "hours": 11,
    "mins": 44
  },
  {
    "from_slug": "montgomery-al",
    "from_name": "Montgomery, AL",
    "from_lat": 32.3792,
    "from_lon": -86.3077,
    "to_slug": "bismarck-nd",
    "to_name": "Bismarck, ND",
    "to_lat": 46.8083,
    "to_lon": -100.7837,
    "miles": 1632,
    "hours": 29,
    "mins": 40
  },
  {
    "from_slug": "montgomery-al",
    "from_name": "Montgomery, AL",
    "from_lat": 32.3792,
    "from_lon": -86.3077,
    "to_slug": "columbus-oh",
    "to_name": "Columbus, OH",
    "to_lat": 39.9612,
    "to_lon": -82.9988,
    "miles": 721,
    "hours": 13,
    "mins": 6
  },
  {
    "from_slug": "montgomery-al",
    "from_name": "Montgomery, AL",
    "from_lat": 32.3792,
    "from_lon": -86.3077,
    "to_slug": "oklahoma-city-ok",
    "to_name": "Oklahoma City, OK",
    "to_lat": 35.4676,
    "to_lon": -97.5164,
    "miles": 879,
    "hours": 15,
    "mins": 58
  },
  {
    "from_slug": "montgomery-al",
    "from_name": "Montgomery, AL",
    "from_lat": 32.3792,
    "from_lon": -86.3077,
    "to_slug": "salem-or",
    "to_name": "Salem, OR",
    "to_lat": 44.9429,
    "to_lon": -123.0351,
    "miles": 2782,
    "hours": 50,
    "mins": 34
  },
  {
    "from_slug": "montgomery-al",
    "from_name": "Montgomery, AL",
    "from_lat": 32.3792,
    "from_lon": -86.3077,
    "to_slug": "harrisburg-pa",
    "to_name": "Harrisburg, PA",
    "to_lat": 40.2732,
    "to_lon": -76.8867,
    "miles": 982,
    "hours": 17,
    "mins": 51
  },
  {
    "from_slug": "montgomery-al",
    "from_name": "Montgomery, AL",
    "from_lat": 32.3792,
    "from_lon": -86.3077,
    "to_slug": "providence-ri",
    "to_name": "Providence, RI",
    "to_lat": 41.824,
    "to_lon": -71.4128,
    "miles": 1359,
    "hours": 24,
    "mins": 42
  },
  {
    "from_slug": "montgomery-al",
    "from_name": "Montgomery, AL",
    "from_lat": 32.3792,
    "from_lon": -86.3077,
    "to_slug": "columbia-sc",
    "to_name": "Columbia, SC",
    "to_lat": 34.0007,
    "to_lon": -81.0348,
    "miles": 422,
    "hours": 7,
    "mins": 40
  },
  {
    "from_slug": "montgomery-al",
    "from_name": "Montgomery, AL",
    "from_lat": 32.3792,
    "from_lon": -86.3077,
    "to_slug": "pierre-sd",
    "to_name": "Pierre, SD",
    "to_lat": 44.3683,
    "to_lon": -100.351,
    "miles": 1457,
    "hours": 26,
    "mins": 29
  },
  {
    "from_slug": "montgomery-al",
    "from_name": "Montgomery, AL",
    "from_lat": 32.3792,
    "from_lon": -86.3077,
    "to_slug": "nashville-tn",
    "to_name": "Nashville, TN",
    "to_lat": 36.1627,
    "to_lon": -86.7816,
    "miles": 341,
    "hours": 6,
    "mins": 12
  },
  {
    "from_slug": "montgomery-al",
    "from_name": "Montgomery, AL",
    "from_lat": 32.3792,
    "from_lon": -86.3077,
    "to_slug": "austin-tx",
    "to_name": "Austin, TX",
    "to_lat": 30.2672,
    "to_lon": -97.7431,
    "miles": 897,
    "hours": 16,
    "mins": 18
  },
  {
    "from_slug": "montgomery-al",
    "from_name": "Montgomery, AL",
    "from_lat": 32.3792,
    "from_lon": -86.3077,
    "to_slug": "salt-lake-city-ut",
    "to_name": "Salt Lake City, UT",
    "to_lat": 40.7608,
    "to_lon": -111.891,
    "miles": 1984,
    "hours": 36,
    "mins": 4
  },
  {
    "from_slug": "montgomery-al",
    "from_name": "Montgomery, AL",
    "from_lat": 32.3792,
    "from_lon": -86.3077,
    "to_slug": "montpelier-vt",
    "to_name": "Montpelier, VT",
    "to_lat": 44.2601,
    "to_lon": -72.5754,
    "miles": 1436,
    "hours": 26,
    "mins": 6
  },
  {
    "from_slug": "montgomery-al",
    "from_name": "Montgomery, AL",
    "from_lat": 32.3792,
    "from_lon": -86.3077,
    "to_slug": "richmond-va",
    "to_name": "Richmond, VA",
    "to_lat": 37.5407,
    "to_lon": -77.436,
    "miles": 800,
    "hours": 14,
    "mins": 32
  },
  {
    "from_slug": "montgomery-al",
    "from_name": "Montgomery, AL",
    "from_lat": 32.3792,
    "from_lon": -86.3077,
    "to_slug": "olympia-wa",
    "to_name": "Olympia, WA",
    "to_lat": 47.0379,
    "to_lon": -122.9007,
    "miles": 2816,
    "hours": 51,
    "mins": 12
  },
  {
    "from_slug": "montgomery-al",
    "from_name": "Montgomery, AL",
    "from_lat": 32.3792,
    "from_lon": -86.3077,
    "to_slug": "charleston-wv",
    "to_name": "Charleston, WV",
    "to_lat": 38.3498,
    "to_lon": -81.6326,
    "miles": 636,
    "hours": 11,
    "mins": 33
  },
  {
    "from_slug": "montgomery-al",
    "from_name": "Montgomery, AL",
    "from_lat": 32.3792,
    "from_lon": -86.3077,
    "to_slug": "madison-wi",
    "to_name": "Madison, WI",
    "to_lat": 43.0731,
    "to_lon": -89.4012,
    "miles": 985,
    "hours": 17,
    "mins": 54
  },
  {
    "from_slug": "montgomery-al",
    "from_name": "Montgomery, AL",
    "from_lat": 32.3792,
    "from_lon": -86.3077,
    "to_slug": "cheyenne-wy",
    "to_name": "Cheyenne, WY",
    "to_lat": 41.14,
    "to_lon": -104.8202,
    "miles": 1542,
    "hours": 28,
    "mins": 2
  },
  {
    "from_slug": "juneau-ak",
    "from_name": "Juneau, AK",
    "from_lat": 58.3019,
    "from_lon": -134.4197,
    "to_slug": "montgomery-al",
    "to_name": "Montgomery, AL",
    "to_lat": 32.3792,
    "to_lon": -86.3077,
    "miles": 3704,
    "hours": 67,
    "mins": 20
  },
  {
    "from_slug": "juneau-ak",
    "from_name": "Juneau, AK",
    "from_lat": 58.3019,
    "from_lon": -134.4197,
    "to_slug": "phoenix-az",
    "to_name": "Phoenix, AZ",
    "to_lat": 33.4484,
    "to_lon": -112.074,
    "miles": 2606,
    "hours": 47,
    "mins": 22
  },
  {
    "from_slug": "juneau-ak",
    "from_name": "Juneau, AK",
    "from_lat": 58.3019,
    "from_lon": -134.4197,
    "to_slug": "little-rock-ar",
    "to_name": "Little Rock, AR",
    "to_lat": 34.7465,
    "to_lon": -92.2896,
    "miles": 3267,
    "hours": 59,
    "mins": 23
  },
  {
    "from_slug": "juneau-ak",
    "from_name": "Juneau, AK",
    "from_lat": 58.3019,
    "from_lon": -134.4197,
    "to_slug": "sacramento-ca",
    "to_name": "Sacramento, CA",
    "to_lat": 38.5816,
    "to_lon": -121.4944,
    "miles": 1923,
    "hours": 34,
    "mins": 57
  },
  {
    "from_slug": "juneau-ak",
    "from_name": "Juneau, AK",
    "from_lat": 58.3019,
    "from_lon": -134.4197,
    "to_slug": "denver-co",
    "to_name": "Denver, CO",
    "to_lat": 39.7392,
    "to_lon": -104.9903,
    "miles": 2369,
    "hours": 43,
    "mins": 4
  },
  {
    "from_slug": "juneau-ak",
    "from_name": "Juneau, AK",
    "from_lat": 58.3019,
    "from_lon": -134.4197,
    "to_slug": "hartford-ct",
    "to_name": "Hartford, CT",
    "to_lat": 41.7658,
    "to_lon": -72.6734,
    "miles": 3702,
    "hours": 67,
    "mins": 18
  },
  {
    "from_slug": "juneau-ak",
    "from_name": "Juneau, AK",
    "from_lat": 58.3019,
    "from_lon": -134.4197,
    "to_slug": "dover-de",
    "to_name": "Dover, DE",
    "to_lat": 39.1582,
    "to_lon": -75.5244,
    "miles": 3737,
    "hours": 67,
    "mins": 56
  },
  {
    "from_slug": "juneau-ak",
    "from_name": "Juneau, AK",
    "from_lat": 58.3019,
    "from_lon": -134.4197,
    "to_slug": "tallahassee-fl",
    "to_name": "Tallahassee, FL",
    "to_lat": 30.4383,
    "to_lon": -84.2807,
    "miles": 3937,
    "hours": 71,
    "mins": 34
  },
  {
    "from_slug": "juneau-ak",
    "from_name": "Juneau, AK",
    "from_lat": 58.3019,
    "from_lon": -134.4197,
    "to_slug": "atlanta-ga",
    "to_name": "Atlanta, GA",
    "to_lat": 33.749,
    "to_lon": -84.388,
    "miles": 3693,
    "hours": 67,
    "mins": 8
  },
  {
    "from_slug": "juneau-ak",
    "from_name": "Juneau, AK",
    "from_lat": 58.3019,
    "from_lon": -134.4197,
    "to_slug": "boise-id",
    "to_name": "Boise, ID",
    "to_lat": 43.615,
    "to_lon": -116.2023,
    "miles": 1662,
    "hours": 30,
    "mins": 13
  },
  {
    "from_slug": "juneau-ak",
    "from_name": "Juneau, AK",
    "from_lat": 58.3019,
    "from_lon": -134.4197,
    "to_slug": "springfield-il",
    "to_name": "Springfield, IL",
    "to_lat": 39.7817,
    "to_lon": -89.6501,
    "miles": 3035,
    "hours": 55,
    "mins": 10
  },
  {
    "from_slug": "juneau-ak",
    "from_name": "Juneau, AK",
    "from_lat": 58.3019,
    "from_lon": -134.4197,
    "to_slug": "indianapolis-in",
    "to_name": "Indianapolis, IN",
    "to_lat": 39.7684,
    "to_lon": -86.1581,
    "miles": 3197,
    "hours": 58,
    "mins": 7
  },
  {
    "from_slug": "juneau-ak",
    "from_name": "Juneau, AK",
    "from_lat": 58.3019,
    "from_lon": -134.4197,
    "to_slug": "des-moines-ia",
    "to_name": "Des Moines, IA",
    "to_lat": 41.5868,
    "to_lon": -93.625,
    "miles": 2733,
    "hours": 49,
    "mins": 41
  },
  {
    "from_slug": "juneau-ak",
    "from_name": "Juneau, AK",
    "from_lat": 58.3019,
    "from_lon": -134.4197,
    "to_slug": "topeka-ks",
    "to_name": "Topeka, KS",
    "to_lat": 39.0473,
    "to_lon": -95.6752,
    "miles": 2813,
    "hours": 51,
    "mins": 8
  },
  {
    "from_slug": "juneau-ak",
    "from_name": "Juneau, AK",
    "from_lat": 58.3019,
    "from_lon": -134.4197,
    "to_slug": "frankfort-ky",
    "to_name": "Frankfort, KY",
    "to_lat": 38.2009,
    "to_lon": -84.8733,
    "miles": 3362,
    "hours": 61,
    "mins": 7
  },
  {
    "from_slug": "juneau-ak",
    "from_name": "Juneau, AK",
    "from_lat": 58.3019,
    "from_lon": -134.4197,
    "to_slug": "baton-rouge-la",
    "to_name": "Baton Rouge, LA",
    "to_lat": 30.4515,
    "to_lon": -91.1871,
    "miles": 3631,
    "hours": 66,
    "mins": 1
  },
  {
    "from_slug": "juneau-ak",
    "from_name": "Juneau, AK",
    "from_lat": 58.3019,
    "from_lon": -134.4197,
    "to_slug": "augusta-me",
    "to_name": "Augusta, ME",
    "to_lat": 44.3106,
    "to_lon": -69.7795,
    "miles": 3677,
    "hours": 66,
    "mins": 51
  },
  {
    "from_slug": "juneau-ak",
    "from_name": "Juneau, AK",
    "from_lat": 58.3019,
    "from_lon": -134.4197,
    "to_slug": "annapolis-md",
    "to_name": "Annapolis, MD",
    "to_lat": 38.9784,
    "to_lon": -76.4922,
    "miles": 3703,
    "hours": 67,
    "mins": 19
  },
  {
    "from_slug": "juneau-ak",
    "from_name": "Juneau, AK",
    "from_lat": 58.3019,
    "from_lon": -134.4197,
    "to_slug": "boston-ma",
    "to_name": "Boston, MA",
    "to_lat": 42.3601,
    "to_lon": -71.0589,
    "miles": 3740,
    "hours": 68,
    "mins": 0
  },
  {
    "from_slug": "juneau-ak",
    "from_name": "Juneau, AK",
    "from_lat": 58.3019,
    "from_lon": -134.4197,
    "to_slug": "lansing-mi",
    "to_name": "Lansing, MI",
    "to_lat": 42.7325,
    "to_lon": -84.5555,
    "miles": 3080,
    "hours": 56,
    "mins": 0
  },
  {
    "from_slug": "juneau-ak",
    "from_name": "Juneau, AK",
    "from_lat": 58.3019,
    "from_lon": -134.4197,
    "to_slug": "saint-paul-mn",
    "to_name": "Saint Paul, MN",
    "to_lat": 44.9537,
    "to_lon": -93.09,
    "miles": 2543,
    "hours": 46,
    "mins": 14
  },
  {
    "from_slug": "juneau-ak",
    "from_name": "Juneau, AK",
    "from_lat": 58.3019,
    "from_lon": -134.4197,
    "to_slug": "jackson-ms",
    "to_name": "Jackson, MS",
    "to_lat": 32.2988,
    "to_lon": -90.1848,
    "miles": 3538,
    "hours": 64,
    "mins": 19
  },
  {
    "from_slug": "juneau-ak",
    "from_name": "Juneau, AK",
    "from_lat": 58.3019,
    "from_lon": -134.4197,
    "to_slug": "jefferson-city-mo",
    "to_name": "Jefferson City, MO",
    "to_lat": 38.5767,
    "to_lon": -92.1735,
    "miles": 3002,
    "hours": 54,
    "mins": 34
  },
  {
    "from_slug": "juneau-ak",
    "from_name": "Juneau, AK",
    "from_lat": 58.3019,
    "from_lon": -134.4197,
    "to_slug": "helena-mt",
    "to_name": "Helena, MT",
    "to_lat": 46.5891,
    "to_lon": -112.0391,
    "miles": 1601,
    "hours": 29,
    "mins": 6
  },
  {
    "from_slug": "juneau-ak",
    "from_name": "Juneau, AK",
    "from_lat": 58.3019,
    "from_lon": -134.4197,
    "to_slug": "lincoln-ne",
    "to_name": "Lincoln, NE",
    "to_lat": 40.8258,
    "to_lon": -96.6852,
    "miles": 2646,
    "hours": 48,
    "mins": 6
  },
  {
    "from_slug": "juneau-ak",
    "from_name": "Juneau, AK",
    "from_lat": 58.3019,
    "from_lon": -134.4197,
    "to_slug": "carson-city-nv",
    "to_name": "Carson City, NV",
    "to_lat": 39.1638,
    "to_lon": -119.7674,
    "miles": 1916,
    "hours": 34,
    "mins": 50
  },
  {
    "from_slug": "juneau-ak",
    "from_name": "Juneau, AK",
    "from_lat": 58.3019,
    "from_lon": -134.4197,
    "to_slug": "concord-nh",
    "to_name": "Concord, NH",
    "to_lat": 43.2081,
    "to_lon": -71.5376,
    "miles": 3664,
    "hours": 66,
    "mins": 37
  },
  {
    "from_slug": "juneau-ak",
    "from_name": "Juneau, AK",
    "from_lat": 58.3019,
    "from_lon": -134.4197,
    "to_slug": "trenton-nj",
    "to_name": "Trenton, NJ",
    "to_lat": 40.2206,
    "to_lon": -74.7597,
    "miles": 3703,
    "hours": 67,
    "mins": 19
  },
  {
    "from_slug": "juneau-ak",
    "from_name": "Juneau, AK",
    "from_lat": 58.3019,
    "from_lon": -134.4197,
    "to_slug": "santa-fe-nm",
    "to_name": "Santa Fe, NM",
    "to_lat": 35.687,
    "to_lon": -105.9378,
    "miles": 2638,
    "hours": 47,
    "mins": 57
  },
  {
    "from_slug": "juneau-ak",
    "from_name": "Juneau, AK",
    "from_lat": 58.3019,
    "from_lon": -134.4197,
    "to_slug": "albany-ny",
    "to_name": "Albany, NY",
    "to_lat": 42.6526,
    "to_lon": -73.7562,
    "miles": 3594,
    "hours": 65,
    "mins": 20
  },
  {
    "from_slug": "juneau-ak",
    "from_name": "Juneau, AK",
    "from_lat": 58.3019,
    "from_lon": -134.4197,
    "to_slug": "raleigh-nc",
    "to_name": "Raleigh, NC",
    "to_lat": 35.7796,
    "to_lon": -78.6382,
    "miles": 3818,
    "hours": 69,
    "mins": 25
  },
  {
    "from_slug": "juneau-ak",
    "from_name": "Juneau, AK",
    "from_lat": 58.3019,
    "from_lon": -134.4197,
    "to_slug": "bismarck-nd",
    "to_name": "Bismarck, ND",
    "to_lat": 46.8083,
    "to_lon": -100.7837,
    "miles": 2076,
    "hours": 37,
    "mins": 44
  },
  {
    "from_slug": "juneau-ak",
    "from_name": "Juneau, AK",
    "from_lat": 58.3019,
    "from_lon": -134.4197,
    "to_slug": "columbus-oh",
    "to_name": "Columbus, OH",
    "to_lat": 39.9612,
    "to_lon": -82.9988,
    "miles": 3332,
    "hours": 60,
    "mins": 34
  },
  {
    "from_slug": "juneau-ak",
    "from_name": "Juneau, AK",
    "from_lat": 58.3019,
    "from_lon": -134.4197,
    "to_slug": "oklahoma-city-ok",
    "to_name": "Oklahoma City, OK",
    "to_lat": 35.4676,
    "to_lon": -97.5164,
    "miles": 2990,
    "hours": 54,
    "mins": 21
  },
  {
    "from_slug": "juneau-ak",
    "from_name": "Juneau, AK",
    "from_lat": 58.3019,
    "from_lon": -134.4197,
    "to_slug": "salem-or",
    "to_name": "Salem, OR",
    "to_lat": 44.9429,
    "to_lon": -123.0351,
    "miles": 1353,
    "hours": 24,
    "mins": 36
  },
  {
    "from_slug": "juneau-ak",
    "from_name": "Juneau, AK",
    "from_lat": 58.3019,
    "from_lon": -134.4197,
    "to_slug": "harrisburg-pa",
    "to_name": "Harrisburg, PA",
    "to_lat": 40.2732,
    "to_lon": -76.8867,
    "miles": 3599,
    "hours": 65,
    "mins": 26
  },
  {
    "from_slug": "juneau-ak",
    "from_name": "Juneau, AK",
    "from_lat": 58.3019,
    "from_lon": -134.4197,
    "to_slug": "providence-ri",
    "to_name": "Providence, RI",
    "to_lat": 41.824,
    "to_lon": -71.4128,
    "miles": 3757,
    "hours": 68,
    "mins": 18
  },
  {
    "from_slug": "juneau-ak",
    "from_name": "Juneau, AK",
    "from_lat": 58.3019,
    "from_lon": -134.4197,
    "to_slug": "columbia-sc",
    "to_name": "Columbia, SC",
    "to_lat": 34.0007,
    "to_lon": -81.0348,
    "miles": 3830,
    "hours": 69,
    "mins": 38
  },
  {
    "from_slug": "juneau-ak",
    "from_name": "Juneau, AK",
    "from_lat": 58.3019,
    "from_lon": -134.4197,
    "to_slug": "pierre-sd",
    "to_name": "Pierre, SD",
    "to_lat": 44.3683,
    "to_lon": -100.351,
    "miles": 2248,
    "hours": 40,
    "mins": 52
  },
  {
    "from_slug": "juneau-ak",
    "from_name": "Juneau, AK",
    "from_lat": 58.3019,
    "from_lon": -134.4197,
    "to_slug": "nashville-tn",
    "to_name": "Nashville, TN",
    "to_lat": 36.1627,
    "to_lon": -86.7816,
    "miles": 3414,
    "hours": 62,
    "mins": 4
  },
  {
    "from_slug": "juneau-ak",
    "from_name": "Juneau, AK",
    "from_lat": 58.3019,
    "from_lon": -134.4197,
    "to_slug": "austin-tx",
    "to_name": "Austin, TX",
    "to_lat": 30.2672,
    "to_lon": -97.7431,
    "miles": 3373,
    "hours": 61,
    "mins": 19
  },
  {
    "from_slug": "juneau-ak",
    "from_name": "Juneau, AK",
    "from_lat": 58.3019,
    "from_lon": -134.4197,
    "to_slug": "salt-lake-city-ut",
    "to_name": "Salt Lake City, UT",
    "to_lat": 40.7608,
    "to_lon": -111.891,
    "miles": 2031,
    "hours": 36,
    "mins": 55
  },
  {
    "from_slug": "juneau-ak",
    "from_name": "Juneau, AK",
    "from_lat": 58.3019,
    "from_lon": -134.4197,
    "to_slug": "montpelier-vt",
    "to_name": "Montpelier, VT",
    "to_lat": 44.2601,
    "to_lon": -72.5754,
    "miles": 3550,
    "hours": 64,
    "mins": 32
  },
  {
    "from_slug": "juneau-ak",
    "from_name": "Juneau, AK",
    "from_lat": 58.3019,
    "from_lon": -134.4197,
    "to_slug": "richmond-va",
    "to_name": "Richmond, VA",
    "to_lat": 37.5407,
    "to_lon": -77.436,
    "miles": 3754,
    "hours": 68,
    "mins": 15
  },
  {
    "from_slug": "juneau-ak",
    "from_name": "Juneau, AK",
    "from_lat": 58.3019,
    "from_lon": -134.4197,
    "to_slug": "olympia-wa",
    "to_name": "Olympia, WA",
    "to_lat": 47.0379,
    "to_lon": -122.9007,
    "miles": 1186,
    "hours": 21,
    "mins": 33
  },
  {
    "from_slug": "juneau-ak",
    "from_name": "Juneau, AK",
    "from_lat": 58.3019,
    "from_lon": -134.4197,
    "to_slug": "charleston-wv",
    "to_name": "Charleston, WV",
    "to_lat": 38.3498,
    "to_lon": -81.6326,
    "miles": 3503,
    "hours": 63,
    "mins": 41
  },
  {
    "from_slug": "juneau-ak",
    "from_name": "Juneau, AK",
    "from_lat": 58.3019,
    "from_lon": -134.4197,
    "to_slug": "madison-wi",
    "to_name": "Madison, WI",
    "to_lat": 43.0731,
    "to_lon": -89.4012,
    "miles": 2832,
    "hours": 51,
    "mins": 29
  },
  {
    "from_slug": "juneau-ak",
    "from_name": "Juneau, AK",
    "from_lat": 58.3019,
    "from_lon": -134.4197,
    "to_slug": "cheyenne-wy",
    "to_name": "Cheyenne, WY",
    "to_lat": 41.14,
    "to_lon": -104.8202,
    "miles": 2275,
    "hours": 41,
    "mins": 21
  },
  {
    "from_slug": "phoenix-az",
    "from_name": "Phoenix, AZ",
    "from_lat": 33.4484,
    "from_lon": -112.074,
    "to_slug": "montgomery-al",
    "to_name": "Montgomery, AL",
    "to_lat": 32.3792,
    "to_lon": -86.3077,
    "miles": 1940,
    "hours": 35,
    "mins": 16
  },
  {
    "from_slug": "phoenix-az",
    "from_name": "Phoenix, AZ",
    "from_lat": 33.4484,
    "from_lon": -112.074,
    "to_slug": "juneau-ak",
    "to_name": "Juneau, AK",
    "to_lat": 58.3019,
    "to_lon": -134.4197,
    "miles": 2606,
    "hours": 47,
    "mins": 22
  },
  {
    "from_slug": "phoenix-az",
    "from_name": "Phoenix, AZ",
    "from_lat": 33.4484,
    "from_lon": -112.074,
    "to_slug": "little-rock-ar",
    "to_name": "Little Rock, AR",
    "to_lat": 34.7465,
    "to_lon": -92.2896,
    "miles": 1473,
    "hours": 26,
    "mins": 46
  },
  {
    "from_slug": "phoenix-az",
    "from_name": "Phoenix, AZ",
    "from_lat": 33.4484,
    "from_lon": -112.074,
    "to_slug": "sacramento-ca",
    "to_name": "Sacramento, CA",
    "to_lat": 38.5816,
    "to_lon": -121.4944,
    "miles": 824,
    "hours": 14,
    "mins": 58
  },
  {
    "from_slug": "phoenix-az",
    "from_name": "Phoenix, AZ",
    "from_lat": 33.4484,
    "from_lon": -112.074,
    "to_slug": "denver-co",
    "to_name": "Denver, CO",
    "to_lat": 39.7392,
    "to_lon": -104.9903,
    "miles": 761,
    "hours": 13,
    "mins": 50
  },
  {
    "from_slug": "phoenix-az",
    "from_name": "Phoenix, AZ",
    "from_lat": 33.4484,
    "from_lon": -112.074,
    "to_slug": "hartford-ct",
    "to_name": "Hartford, CT",
    "to_lat": 41.7658,
    "to_lon": -72.6734,
    "miles": 2874,
    "hours": 52,
    "mins": 15
  },
  {
    "from_slug": "phoenix-az",
    "from_name": "Phoenix, AZ",
    "from_lat": 33.4484,
    "from_lon": -112.074,
    "to_slug": "dover-de",
    "to_name": "Dover, DE",
    "to_lat": 39.1582,
    "to_lon": -75.5244,
    "miles": 2676,
    "hours": 48,
    "mins": 39
  },
  {
    "from_slug": "phoenix-az",
    "from_name": "Phoenix, AZ",
    "from_lat": 33.4484,
    "from_lon": -112.074,
    "to_slug": "tallahassee-fl",
    "to_name": "Tallahassee, FL",
    "to_lat": 30.4383,
    "to_lon": -84.2807,
    "miles": 2129,
    "hours": 38,
    "mins": 42
  },
  {
    "from_slug": "phoenix-az",
    "from_name": "Phoenix, AZ",
    "from_lat": 33.4484,
    "from_lon": -112.074,
    "to_slug": "atlanta-ga",
    "to_name": "Atlanta, GA",
    "to_lat": 33.749,
    "to_lon": -84.388,
    "miles": 2065,
    "hours": 37,
    "mins": 32
  },
  {
    "from_slug": "phoenix-az",
    "from_name": "Phoenix, AZ",
    "from_lat": 33.4484,
    "from_lon": -112.074,
    "to_slug": "boise-id",
    "to_name": "Boise, ID",
    "to_lat": 43.615,
    "to_lon": -116.2023,
    "miles": 957,
    "hours": 17,
    "mins": 23
  },
  {
    "from_slug": "phoenix-az",
    "from_name": "Phoenix, AZ",
    "from_lat": 33.4484,
    "from_lon": -112.074,
    "to_slug": "springfield-il",
    "to_name": "Springfield, IL",
    "to_lat": 39.7817,
    "to_lon": -89.6501,
    "miles": 1708,
    "hours": 31,
    "mins": 3
  },
  {
    "from_slug": "phoenix-az",
    "from_name": "Phoenix, AZ",
    "from_lat": 33.4484,
    "from_lon": -112.074,
    "to_slug": "indianapolis-in",
    "to_name": "Indianapolis, IN",
    "to_lat": 39.7684,
    "to_lon": -86.1581,
    "miles": 1945,
    "hours": 35,
    "mins": 21
  },
  {
    "from_slug": "phoenix-az",
    "from_name": "Phoenix, AZ",
    "from_lat": 33.4484,
    "from_lon": -112.074,
    "to_slug": "des-moines-ia",
    "to_name": "Des Moines, IA",
    "to_lat": 41.5868,
    "to_lon": -93.625,
    "miles": 1499,
    "hours": 27,
    "mins": 15
  },
  {
    "from_slug": "phoenix-az",
    "from_name": "Phoenix, AZ",
    "from_lat": 33.4484,
    "from_lon": -112.074,
    "to_slug": "topeka-ks",
    "to_name": "Topeka, KS",
    "to_lat": 39.0473,
    "to_lon": -95.6752,
    "miles": 1287,
    "hours": 23,
    "mins": 23
  },
  {
    "from_slug": "phoenix-az",
    "from_name": "Phoenix, AZ",
    "from_lat": 33.4484,
    "from_lon": -112.074,
    "to_slug": "frankfort-ky",
    "to_name": "Frankfort, KY",
    "to_lat": 38.2009,
    "to_lon": -84.8733,
    "miles": 2018,
    "hours": 36,
    "mins": 41
  },
  {
    "from_slug": "phoenix-az",
    "from_name": "Phoenix, AZ",
    "from_lat": 33.4484,
    "from_lon": -112.074,
    "to_slug": "baton-rouge-la",
    "to_name": "Baton Rouge, LA",
    "to_lat": 30.4515,
    "to_lon": -91.1871,
    "miles": 1611,
    "hours": 29,
    "mins": 17
  },
  {
    "from_slug": "phoenix-az",
    "from_name": "Phoenix, AZ",
    "from_lat": 33.4484,
    "from_lon": -112.074,
    "to_slug": "augusta-me",
    "to_name": "Augusta, ME",
    "to_lat": 44.3106,
    "to_lon": -69.7795,
    "miles": 3075,
    "hours": 55,
    "mins": 54
  },
  {
    "from_slug": "phoenix-az",
    "from_name": "Phoenix, AZ",
    "from_lat": 33.4484,
    "from_lon": -112.074,
    "to_slug": "annapolis-md",
    "to_name": "Annapolis, MD",
    "to_lat": 38.9784,
    "to_lon": -76.4922,
    "miles": 2609,
    "hours": 47,
    "mins": 26
  },
  {
    "from_slug": "phoenix-az",
    "from_name": "Phoenix, AZ",
    "from_lat": 33.4484,
    "from_lon": -112.074,
    "to_slug": "boston-ma",
    "to_name": "Boston, MA",
    "to_lat": 42.3601,
    "to_lon": -71.0589,
    "miles": 2983,
    "hours": 54,
    "mins": 14
  },
  {
    "from_slug": "phoenix-az",
    "from_name": "Phoenix, AZ",
    "from_lat": 33.4484,
    "from_lon": -112.074,
    "to_slug": "lansing-mi",
    "to_name": "Lansing, MI",
    "to_lat": 42.7325,
    "to_lon": -84.5555,
    "miles": 2104,
    "hours": 38,
    "mins": 15
  },
  {
    "from_slug": "phoenix-az",
    "from_name": "Phoenix, AZ",
    "from_lat": 33.4484,
    "from_lon": -112.074,
    "to_slug": "saint-paul-mn",
    "to_name": "Saint Paul, MN",
    "to_lat": 44.9537,
    "to_lon": -93.09,
    "miles": 1670,
    "hours": 30,
    "mins": 21
  },
  {
    "from_slug": "phoenix-az",
    "from_name": "Phoenix, AZ",
    "from_lat": 33.4484,
    "from_lon": -112.074,
    "to_slug": "jackson-ms",
    "to_name": "Jackson, MS",
    "to_lat": 32.2988,
    "to_lon": -90.1848,
    "miles": 1651,
    "hours": 30,
    "mins": 1
  },
  {
    "from_slug": "phoenix-az",
    "from_name": "Phoenix, AZ",
    "from_lat": 33.4484,
    "from_lon": -112.074,
    "to_slug": "jefferson-city-mo",
    "to_name": "Jefferson City, MO",
    "to_lat": 38.5767,
    "to_lon": -92.1735,
    "miles": 1513,
    "hours": 27,
    "mins": 30
  },
  {
    "from_slug": "phoenix-az",
    "from_name": "Phoenix, AZ",
    "from_lat": 33.4484,
    "from_lon": -112.074,
    "to_slug": "helena-mt",
    "to_name": "Helena, MT",
    "to_lat": 46.5891,
    "to_lon": -112.0391,
    "miles": 1180,
    "hours": 21,
    "mins": 27
  },
  {
    "from_slug": "phoenix-az",
    "from_name": "Phoenix, AZ",
    "from_lat": 33.4484,
    "from_lon": -112.074,
    "to_slug": "lincoln-ne",
    "to_name": "Lincoln, NE",
    "to_lat": 40.8258,
    "to_lon": -96.6852,
    "miles": 1283,
    "hours": 23,
    "mins": 19
  },
  {
    "from_slug": "phoenix-az",
    "from_name": "Phoenix, AZ",
    "from_lat": 33.4484,
    "from_lon": -112.074,
    "to_slug": "carson-city-nv",
    "to_name": "Carson City, NV",
    "to_lat": 39.1638,
    "to_lon": -119.7674,
    "miles": 756,
    "hours": 13,
    "mins": 44
  },
  {
    "from_slug": "phoenix-az",
    "from_name": "Phoenix, AZ",
    "from_lat": 33.4484,
    "from_lon": -112.074,
    "to_slug": "concord-nh",
    "to_name": "Concord, NH",
    "to_lat": 43.2081,
    "to_lon": -71.5376,
    "miles": 2955,
    "hours": 53,
    "mins": 43
  },
  {
    "from_slug": "phoenix-az",
    "from_name": "Phoenix, AZ",
    "from_lat": 33.4484,
    "from_lon": -112.074,
    "to_slug": "trenton-nj",
    "to_name": "Trenton, NJ",
    "to_lat": 40.2206,
    "to_lon": -74.7597,
    "miles": 2729,
    "hours": 49,
    "mins": 37
  },
  {
    "from_slug": "phoenix-az",
    "from_name": "Phoenix, AZ",
    "from_lat": 33.4484,
    "from_lon": -112.074,
    "to_slug": "santa-fe-nm",
    "to_name": "Santa Fe, NM",
    "to_lat": 35.687,
    "to_lon": -105.9378,
    "miles": 496,
    "hours": 9,
    "mins": 1
  },
  {
    "from_slug": "phoenix-az",
    "from_name": "Phoenix, AZ",
    "from_lat": 33.4484,
    "from_lon": -112.074,
    "to_slug": "albany-ny",
    "to_name": "Albany, NY",
    "to_lat": 42.6526,
    "to_lon": -73.7562,
    "miles": 2806,
    "hours": 51,
    "mins": 1
  },
  {
    "from_slug": "phoenix-az",
    "from_name": "Phoenix, AZ",
    "from_lat": 33.4484,
    "from_lon": -112.074,
    "to_slug": "raleigh-nc",
    "to_name": "Raleigh, NC",
    "to_lat": 35.7796,
    "to_lon": -78.6382,
    "miles": 2468,
    "hours": 44,
    "mins": 52
  },
  {
    "from_slug": "phoenix-az",
    "from_name": "Phoenix, AZ",
    "from_lat": 33.4484,
    "from_lon": -112.074,
    "to_slug": "bismarck-nd",
    "to_name": "Bismarck, ND",
    "to_lat": 46.8083,
    "to_lon": -100.7837,
    "miles": 1425,
    "hours": 25,
    "mins": 54
  },
  {
    "from_slug": "phoenix-az",
    "from_name": "Phoenix, AZ",
    "from_lat": 33.4484,
    "from_lon": -112.074,
    "to_slug": "columbus-oh",
    "to_name": "Columbus, OH",
    "to_lat": 39.9612,
    "to_lon": -82.9988,
    "miles": 2163,
    "hours": 39,
    "mins": 19
  },
  {
    "from_slug": "phoenix-az",
    "from_name": "Phoenix, AZ",
    "from_lat": 33.4484,
    "from_lon": -112.074,
    "to_slug": "oklahoma-city-ok",
    "to_name": "Oklahoma City, OK",
    "to_lat": 35.4676,
    "to_lon": -97.5164,
    "miles": 1092,
    "hours": 19,
    "mins": 51
  },
  {
    "from_slug": "phoenix-az",
    "from_name": "Phoenix, AZ",
    "from_lat": 33.4484,
    "from_lon": -112.074,
    "to_slug": "salem-or",
    "to_name": "Salem, OR",
    "to_lat": 44.9429,
    "to_lon": -123.0351,
    "miles": 1281,
    "hours": 23,
    "mins": 17
  },
  {
    "from_slug": "phoenix-az",
    "from_name": "Phoenix, AZ",
    "from_lat": 33.4484,
    "from_lon": -112.074,
    "to_slug": "harrisburg-pa",
    "to_name": "Harrisburg, PA",
    "to_lat": 40.2732,
    "to_lon": -76.8867,
    "miles": 2584,
    "hours": 46,
    "mins": 58
  },
  {
    "from_slug": "phoenix-az",
    "from_name": "Phoenix, AZ",
    "from_lat": 33.4484,
    "from_lon": -112.074,
    "to_slug": "providence-ri",
    "to_name": "Providence, RI",
    "to_lat": 41.824,
    "to_lon": -71.4128,
    "miles": 2959,
    "hours": 53,
    "mins": 47
  },
  {
    "from_slug": "phoenix-az",
    "from_name": "Phoenix, AZ",
    "from_lat": 33.4484,
    "from_lon": -112.074,
    "to_slug": "columbia-sc",
    "to_name": "Columbia, SC",
    "to_lat": 34.0007,
    "to_lon": -81.0348,
    "miles": 2310,
    "hours": 42,
    "mins": 0
  },
  {
    "from_slug": "phoenix-az",
    "from_name": "Phoenix, AZ",
    "from_lat": 33.4484,
    "from_lon": -112.074,
    "to_slug": "pierre-sd",
    "to_name": "Pierre, SD",
    "to_lat": 44.3683,
    "to_lon": -100.351,
    "miles": 1275,
    "hours": 23,
    "mins": 10
  },
  {
    "from_slug": "phoenix-az",
    "from_name": "Phoenix, AZ",
    "from_lat": 33.4484,
    "from_lon": -112.074,
    "to_slug": "nashville-tn",
    "to_name": "Nashville, TN",
    "to_lat": 36.1627,
    "to_lon": -86.7816,
    "miles": 1875,
    "hours": 34,
    "mins": 5
  },
  {
    "from_slug": "phoenix-az",
    "from_name": "Phoenix, AZ",
    "from_lat": 33.4484,
    "from_lon": -112.074,
    "to_slug": "austin-tx",
    "to_name": "Austin, TX",
    "to_lat": 30.2672,
    "to_lon": -97.7431,
    "miles": 1129,
    "hours": 20,
    "mins": 31
  },
  {
    "from_slug": "phoenix-az",
    "from_name": "Phoenix, AZ",
    "from_lat": 33.4484,
    "from_lon": -112.074,
    "to_slug": "salt-lake-city-ut",
    "to_name": "Salt Lake City, UT",
    "to_lat": 40.7608,
    "to_lon": -111.891,
    "miles": 656,
    "hours": 11,
    "mins": 55
  },
  {
    "from_slug": "phoenix-az",
    "from_name": "Phoenix, AZ",
    "from_lat": 33.4484,
    "from_lon": -112.074,
    "to_slug": "montpelier-vt",
    "to_name": "Montpelier, VT",
    "to_lat": 44.2601,
    "to_lon": -72.5754,
    "miles": 2896,
    "hours": 52,
    "mins": 39
  },
  {
    "from_slug": "phoenix-az",
    "from_name": "Phoenix, AZ",
    "from_lat": 33.4484,
    "from_lon": -112.074,
    "to_slug": "richmond-va",
    "to_name": "Richmond, VA",
    "to_lat": 37.5407,
    "to_lon": -77.436,
    "miles": 2545,
    "hours": 46,
    "mins": 16
  },
  {
    "from_slug": "phoenix-az",
    "from_name": "Phoenix, AZ",
    "from_lat": 33.4484,
    "from_lon": -112.074,
    "to_slug": "olympia-wa",
    "to_name": "Olympia, WA",
    "to_lat": 47.0379,
    "to_lon": -122.9007,
    "miles": 1425,
    "hours": 25,
    "mins": 54
  },
  {
    "from_slug": "phoenix-az",
    "from_name": "Phoenix, AZ",
    "from_lat": 33.4484,
    "from_lon": -112.074,
    "to_slug": "charleston-wv",
    "to_name": "Charleston, WV",
    "to_lat": 38.3498,
    "to_lon": -81.6326,
    "miles": 2247,
    "hours": 40,
    "mins": 51
  },
  {
    "from_slug": "phoenix-az",
    "from_name": "Phoenix, AZ",
    "from_lat": 33.4484,
    "from_lon": -112.074,
    "to_slug": "madison-wi",
    "to_name": "Madison, WI",
    "to_lat": 43.0731,
    "to_lon": -89.4012,
    "miles": 1809,
    "hours": 32,
    "mins": 53
  },
  {
    "from_slug": "phoenix-az",
    "from_name": "Phoenix, AZ",
    "from_lat": 33.4484,
    "from_lon": -112.074,
    "to_slug": "cheyenne-wy",
    "to_name": "Cheyenne, WY",
    "to_lat": 41.14,
    "to_lon": -104.8202,
    "miles": 863,
    "hours": 15,
    "mins": 41
  },
  {
    "from_slug": "little-rock-ar",
    "from_name": "Little Rock, AR",
    "from_lat": 34.7465,
    "from_lon": -92.2896,
    "to_slug": "montgomery-al",
    "to_name": "Montgomery, AL",
    "to_lat": 32.3792,
    "to_lon": -86.3077,
    "miles": 495,
    "hours": 9,
    "mins": 0
  },
  {
    "from_slug": "little-rock-ar",
    "from_name": "Little Rock, AR",
    "from_lat": 34.7465,
    "from_lon": -92.2896,
    "to_slug": "juneau-ak",
    "to_name": "Juneau, AK",
    "to_lat": 58.3019,
    "to_lon": -134.4197,
    "miles": 3267,
    "hours": 59,
    "mins": 23
  },
  {
    "from_slug": "little-rock-ar",
    "from_name": "Little Rock, AR",
    "from_lat": 34.7465,
    "from_lon": -92.2896,
    "to_slug": "phoenix-az",
    "to_name": "Phoenix, AZ",
    "to_lat": 33.4484,
    "to_lon": -112.074,
    "miles": 1473,
    "hours": 26,
    "mins": 46
  },
  {
    "from_slug": "little-rock-ar",
    "from_name": "Little Rock, AR",
    "from_lat": 34.7465,
    "from_lon": -92.2896,
    "to_slug": "sacramento-ca",
    "to_name": "Sacramento, CA",
    "to_lat": 38.5816,
    "to_lon": -121.4944,
    "miles": 2123,
    "hours": 38,
    "mins": 36
  },
  {
    "from_slug": "little-rock-ar",
    "from_name": "Little Rock, AR",
    "from_lat": 34.7465,
    "from_lon": -92.2896,
    "to_slug": "denver-co",
    "to_name": "Denver, CO",
    "to_lat": 39.7392,
    "to_lon": -104.9903,
    "miles": 1011,
    "hours": 18,
    "mins": 22
  },
  {
    "from_slug": "little-rock-ar",
    "from_name": "Little Rock, AR",
    "from_lat": 34.7465,
    "from_lon": -92.2896,
    "to_slug": "hartford-ct",
    "to_name": "Hartford, CT",
    "to_lat": 41.7658,
    "to_lon": -72.6734,
    "miles": 1515,
    "hours": 27,
    "mins": 32
  },
  {
    "from_slug": "little-rock-ar",
    "from_name": "Little Rock, AR",
    "from_lat": 34.7465,
    "from_lon": -92.2896,
    "to_slug": "dover-de",
    "to_name": "Dover, DE",
    "to_lat": 39.1582,
    "to_lon": -75.5244,
    "miles": 1264,
    "hours": 22,
    "mins": 58
  },
  {
    "from_slug": "little-rock-ar",
    "from_name": "Little Rock, AR",
    "from_lat": 34.7465,
    "from_lon": -92.2896,
    "to_slug": "tallahassee-fl",
    "to_name": "Tallahassee, FL",
    "to_lat": 30.4383,
    "to_lon": -84.2807,
    "miles": 718,
    "hours": 13,
    "mins": 3
  },
  {
    "from_slug": "little-rock-ar",
    "from_name": "Little Rock, AR",
    "from_lat": 34.7465,
    "from_lon": -92.2896,
    "to_slug": "atlanta-ga",
    "to_name": "Atlanta, GA",
    "to_lat": 33.749,
    "to_lon": -84.388,
    "miles": 593,
    "hours": 10,
    "mins": 46
  },
  {
    "from_slug": "little-rock-ar",
    "from_name": "Little Rock, AR",
    "from_lat": 34.7465,
    "from_lon": -92.2896,
    "to_slug": "boise-id",
    "to_name": "Boise, ID",
    "to_lat": 43.615,
    "to_lon": -116.2023,
    "miles": 1836,
    "hours": 33,
    "mins": 22
  },
  {
    "from_slug": "little-rock-ar",
    "from_name": "Little Rock, AR",
    "from_lat": 34.7465,
    "from_lon": -92.2896,
    "to_slug": "springfield-il",
    "to_name": "Springfield, IL",
    "to_lat": 39.7817,
    "to_lon": -89.6501,
    "miles": 490,
    "hours": 8,
    "mins": 54
  },
  {
    "from_slug": "little-rock-ar",
    "from_name": "Little Rock, AR",
    "from_lat": 34.7465,
    "from_lon": -92.2896,
    "to_slug": "indianapolis-in",
    "to_name": "Indianapolis, IN",
    "to_lat": 39.7684,
    "to_lon": -86.1581,
    "miles": 628,
    "hours": 11,
    "mins": 25
  },
  {
    "from_slug": "little-rock-ar",
    "from_name": "Little Rock, AR",
    "from_lat": 34.7465,
    "from_lon": -92.2896,
    "to_slug": "des-moines-ia",
    "to_name": "Des Moines, IA",
    "to_lat": 41.5868,
    "to_lon": -93.625,
    "miles": 621,
    "hours": 11,
    "mins": 17
  },
  {
    "from_slug": "little-rock-ar",
    "from_name": "Little Rock, AR",
    "from_lat": 34.7465,
    "from_lon": -92.2896,
    "to_slug": "topeka-ks",
    "to_name": "Topeka, KS",
    "to_lat": 39.0473,
    "to_lon": -95.6752,
    "miles": 456,
    "hours": 8,
    "mins": 17
  },
  {
    "from_slug": "little-rock-ar",
    "from_name": "Little Rock, AR",
    "from_lat": 34.7465,
    "from_lon": -92.2896,
    "to_slug": "frankfort-ky",
    "to_name": "Frankfort, KY",
    "to_lat": 38.2009,
    "to_lon": -84.8733,
    "miles": 618,
    "hours": 11,
    "mins": 14
  },
  {
    "from_slug": "little-rock-ar",
    "from_name": "Little Rock, AR",
    "from_lat": 34.7465,
    "from_lon": -92.2896,
    "to_slug": "baton-rouge-la",
    "to_name": "Baton Rouge, LA",
    "to_lat": 30.4515,
    "to_lon": -91.1871,
    "miles": 394,
    "hours": 7,
    "mins": 9
  },
  {
    "from_slug": "little-rock-ar",
    "from_name": "Little Rock, AR",
    "from_lat": 34.7465,
    "from_lon": -92.2896,
    "to_slug": "augusta-me",
    "to_name": "Augusta, ME",
    "to_lat": 44.3106,
    "to_lon": -69.7795,
    "miles": 1772,
    "hours": 32,
    "mins": 13
  },
  {
    "from_slug": "little-rock-ar",
    "from_name": "Little Rock, AR",
    "from_lat": 34.7465,
    "from_lon": -92.2896,
    "to_slug": "annapolis-md",
    "to_name": "Annapolis, MD",
    "to_lat": 38.9784,
    "to_lon": -76.4922,
    "miles": 1195,
    "hours": 21,
    "mins": 43
  },
  {
    "from_slug": "little-rock-ar",
    "from_name": "Little Rock, AR",
    "from_lat": 34.7465,
    "from_lon": -92.2896,
    "to_slug": "boston-ma",
    "to_name": "Boston, MA",
    "to_lat": 42.3601,
    "to_lon": -71.0589,
    "miles": 1634,
    "hours": 29,
    "mins": 42
  },
  {
    "from_slug": "little-rock-ar",
    "from_name": "Little Rock, AR",
    "from_lat": 34.7465,
    "from_lon": -92.2896,
    "to_slug": "lansing-mi",
    "to_name": "Lansing, MI",
    "to_lat": 42.7325,
    "to_lon": -84.5555,
    "miles": 898,
    "hours": 16,
    "mins": 19
  },
  {
    "from_slug": "little-rock-ar",
    "from_name": "Little Rock, AR",
    "from_lat": 34.7465,
    "from_lon": -92.2896,
    "to_slug": "saint-paul-mn",
    "to_name": "Saint Paul, MN",
    "to_lat": 44.9537,
    "to_lon": -93.09,
    "miles": 918,
    "hours": 16,
    "mins": 41
  },
  {
    "from_slug": "little-rock-ar",
    "from_name": "Little Rock, AR",
    "from_lat": 34.7465,
    "from_lon": -92.2896,
    "to_slug": "jackson-ms",
    "to_name": "Jackson, MS",
    "to_lat": 32.2988,
    "to_lon": -90.1848,
    "miles": 270,
    "hours": 4,
    "mins": 54
  },
  {
    "from_slug": "little-rock-ar",
    "from_name": "Little Rock, AR",
    "from_lat": 34.7465,
    "from_lon": -92.2896,
    "to_slug": "jefferson-city-mo",
    "to_name": "Jefferson City, MO",
    "to_lat": 38.5767,
    "to_lon": -92.1735,
    "miles": 344,
    "hours": 6,
    "mins": 15
  },
  {
    "from_slug": "little-rock-ar",
    "from_name": "Little Rock, AR",
    "from_lat": 34.7465,
    "from_lon": -92.2896,
    "to_slug": "helena-mt",
    "to_name": "Helena, MT",
    "to_lat": 46.5891,
    "to_lon": -112.0391,
    "miles": 1707,
    "hours": 31,
    "mins": 2
  },
  {
    "from_slug": "little-rock-ar",
    "from_name": "Little Rock, AR",
    "from_lat": 34.7465,
    "from_lon": -92.2896,
    "to_slug": "lincoln-ne",
    "to_name": "Lincoln, NE",
    "to_lat": 40.8258,
    "to_lon": -96.6852,
    "miles": 628,
    "hours": 11,
    "mins": 25
  },
  {
    "from_slug": "little-rock-ar",
    "from_name": "Little Rock, AR",
    "from_lat": 34.7465,
    "from_lon": -92.2896,
    "to_slug": "carson-city-nv",
    "to_name": "Carson City, NV",
    "to_lat": 39.1638,
    "to_lon": -119.7674,
    "miles": 2003,
    "hours": 36,
    "mins": 25
  },
  {
    "from_slug": "little-rock-ar",
    "from_name": "Little Rock, AR",
    "from_lat": 34.7465,
    "from_lon": -92.2896,
    "to_slug": "concord-nh",
    "to_name": "Concord, NH",
    "to_lat": 43.2081,
    "to_lon": -71.5376,
    "miles": 1630,
    "hours": 29,
    "mins": 38
  },
  {
    "from_slug": "little-rock-ar",
    "from_name": "Little Rock, AR",
    "from_lat": 34.7465,
    "from_lon": -92.2896,
    "to_slug": "trenton-nj",
    "to_name": "Trenton, NJ",
    "to_lat": 40.2206,
    "to_lon": -74.7597,
    "miles": 1339,
    "hours": 24,
    "mins": 20
  },
  {
    "from_slug": "little-rock-ar",
    "from_name": "Little Rock, AR",
    "from_lat": 34.7465,
    "from_lon": -92.2896,
    "to_slug": "santa-fe-nm",
    "to_name": "Santa Fe, NM",
    "to_lat": 35.687,
    "to_lon": -105.9378,
    "miles": 1004,
    "hours": 18,
    "mins": 15
  },
  {
    "from_slug": "little-rock-ar",
    "from_name": "Little Rock, AR",
    "from_lat": 34.7465,
    "from_lon": -92.2896,
    "to_slug": "albany-ny",
    "to_name": "Albany, NY",
    "to_lat": 42.6526,
    "to_lon": -73.7562,
    "miles": 1476,
    "hours": 26,
    "mins": 50
  },
  {
    "from_slug": "little-rock-ar",
    "from_name": "Little Rock, AR",
    "from_lat": 34.7465,
    "from_lon": -92.2896,
    "to_slug": "raleigh-nc",
    "to_name": "Raleigh, NC",
    "to_lat": 35.7796,
    "to_lon": -78.6382,
    "miles": 1004,
    "hours": 18,
    "mins": 15
  },
  {
    "from_slug": "little-rock-ar",
    "from_name": "Little Rock, AR",
    "from_lat": 34.7465,
    "from_lon": -92.2896,
    "to_slug": "bismarck-nd",
    "to_name": "Bismarck, ND",
    "to_lat": 46.8083,
    "to_lon": -100.7837,
    "miles": 1226,
    "hours": 22,
    "mins": 17
  },
  {
    "from_slug": "little-rock-ar",
    "from_name": "Little Rock, AR",
    "from_lat": 34.7465,
    "from_lon": -92.2896,
    "to_slug": "columbus-oh",
    "to_name": "Columbus, OH",
    "to_lat": 39.9612,
    "to_lon": -82.9988,
    "miles": 811,
    "hours": 14,
    "mins": 44
  },
  {
    "from_slug": "little-rock-ar",
    "from_name": "Little Rock, AR",
    "from_lat": 34.7465,
    "from_lon": -92.2896,
    "to_slug": "oklahoma-city-ok",
    "to_name": "Oklahoma City, OK",
    "to_lat": 35.4676,
    "to_lon": -97.5164,
    "miles": 389,
    "hours": 7,
    "mins": 4
  },
  {
    "from_slug": "little-rock-ar",
    "from_name": "Little Rock, AR",
    "from_lat": 34.7465,
    "from_lon": -92.2896,
    "to_slug": "salem-or",
    "to_name": "Salem, OR",
    "to_lat": 44.9429,
    "to_lon": -123.0351,
    "miles": 2292,
    "hours": 41,
    "mins": 40
  },
  {
    "from_slug": "little-rock-ar",
    "from_name": "Little Rock, AR",
    "from_lat": 34.7465,
    "from_lon": -92.2896,
    "to_slug": "harrisburg-pa",
    "to_name": "Harrisburg, PA",
    "to_lat": 40.2732,
    "to_lon": -76.8867,
    "miles": 1202,
    "hours": 21,
    "mins": 51
  },
  {
    "from_slug": "little-rock-ar",
    "from_name": "Little Rock, AR",
    "from_lat": 34.7465,
    "from_lon": -92.2896,
    "to_slug": "providence-ri",
    "to_name": "Providence, RI",
    "to_lat": 41.824,
    "to_lon": -71.4128,
    "miles": 1598,
    "hours": 29,
    "mins": 3
  },
  {
    "from_slug": "little-rock-ar",
    "from_name": "Little Rock, AR",
    "from_lat": 34.7465,
    "from_lon": -92.2896,
    "to_slug": "columbia-sc",
    "to_name": "Columbia, SC",
    "to_lat": 34.0007,
    "to_lon": -81.0348,
    "miles": 836,
    "hours": 15,
    "mins": 11
  },
  {
    "from_slug": "little-rock-ar",
    "from_name": "Little Rock, AR",
    "from_lat": 34.7465,
    "from_lon": -92.2896,
    "to_slug": "pierre-sd",
    "to_name": "Pierre, SD",
    "to_lat": 44.3683,
    "to_lon": -100.351,
    "miles": 1027,
    "hours": 18,
    "mins": 40
  },
  {
    "from_slug": "little-rock-ar",
    "from_name": "Little Rock, AR",
    "from_lat": 34.7465,
    "from_lon": -92.2896,
    "to_slug": "nashville-tn",
    "to_name": "Nashville, TN",
    "to_lat": 36.1627,
    "to_lon": -86.7816,
    "miles": 422,
    "hours": 7,
    "mins": 40
  },
  {
    "from_slug": "little-rock-ar",
    "from_name": "Little Rock, AR",
    "from_lat": 34.7465,
    "from_lon": -92.2896,
    "to_slug": "austin-tx",
    "to_name": "Austin, TX",
    "to_lat": 30.2672,
    "to_lon": -97.7431,
    "miles": 576,
    "hours": 10,
    "mins": 28
  },
  {
    "from_slug": "little-rock-ar",
    "from_name": "Little Rock, AR",
    "from_lat": 34.7465,
    "from_lon": -92.2896,
    "to_slug": "salt-lake-city-ut",
    "to_name": "Salt Lake City, UT",
    "to_lat": 40.7608,
    "to_lon": -111.891,
    "miles": 1489,
    "hours": 27,
    "mins": 4
  },
  {
    "from_slug": "little-rock-ar",
    "from_name": "Little Rock, AR",
    "from_lat": 34.7465,
    "from_lon": -92.2896,
    "to_slug": "montpelier-vt",
    "to_name": "Montpelier, VT",
    "to_lat": 44.2601,
    "to_lon": -72.5754,
    "miles": 1605,
    "hours": 29,
    "mins": 10
  },
  {
    "from_slug": "little-rock-ar",
    "from_name": "Little Rock, AR",
    "from_lat": 34.7465,
    "from_lon": -92.2896,
    "to_slug": "richmond-va",
    "to_name": "Richmond, VA",
    "to_lat": 37.5407,
    "to_lon": -77.436,
    "miles": 1105,
    "hours": 20,
    "mins": 5
  },
  {
    "from_slug": "little-rock-ar",
    "from_name": "Little Rock, AR",
    "from_lat": 34.7465,
    "from_lon": -92.2896,
    "to_slug": "olympia-wa",
    "to_name": "Olympia, WA",
    "to_lat": 47.0379,
    "to_lon": -122.9007,
    "miles": 2332,
    "hours": 42,
    "mins": 23
  },
  {
    "from_slug": "little-rock-ar",
    "from_name": "Little Rock, AR",
    "from_lat": 34.7465,
    "from_lon": -92.2896,
    "to_slug": "charleston-wv",
    "to_name": "Charleston, WV",
    "to_lat": 38.3498,
    "to_lon": -81.6326,
    "miles": 833,
    "hours": 15,
    "mins": 8
  },
  {
    "from_slug": "little-rock-ar",
    "from_name": "Little Rock, AR",
    "from_lat": 34.7465,
    "from_lon": -92.2896,
    "to_slug": "madison-wi",
    "to_name": "Madison, WI",
    "to_lat": 43.0731,
    "to_lon": -89.4012,
    "miles": 774,
    "hours": 14,
    "mins": 4
  },
  {
    "from_slug": "little-rock-ar",
    "from_name": "Little Rock, AR",
    "from_lat": 34.7465,
    "from_lon": -92.2896,
    "to_slug": "cheyenne-wy",
    "to_name": "Cheyenne, WY",
    "to_lat": 41.14,
    "to_lon": -104.8202,
    "miles": 1055,
    "hours": 19,
    "mins": 10
  },
  {
    "from_slug": "sacramento-ca",
    "from_name": "Sacramento, CA",
    "from_lat": 38.5816,
    "from_lon": -121.4944,
    "to_slug": "montgomery-al",
    "to_name": "Montgomery, AL",
    "to_lat": 32.3792,
    "to_lon": -86.3077,
    "miles": 2616,
    "hours": 47,
    "mins": 33
  },
  {
    "from_slug": "sacramento-ca",
    "from_name": "Sacramento, CA",
    "from_lat": 38.5816,
    "from_lon": -121.4944,
    "to_slug": "juneau-ak",
    "to_name": "Juneau, AK",
    "to_lat": 58.3019,
    "to_lon": -134.4197,
    "miles": 1923,
    "hours": 34,
    "mins": 57
  },
  {
    "from_slug": "sacramento-ca",
    "from_name": "Sacramento, CA",
    "from_lat": 38.5816,
    "from_lon": -121.4944,
    "to_slug": "phoenix-az",
    "to_name": "Phoenix, AZ",
    "to_lat": 33.4484,
    "to_lon": -112.074,
    "miles": 824,
    "hours": 14,
    "mins": 58
  },
  {
    "from_slug": "sacramento-ca",
    "from_name": "Sacramento, CA",
    "from_lat": 38.5816,
    "from_lon": -121.4944,
    "to_slug": "little-rock-ar",
    "to_name": "Little Rock, AR",
    "to_lat": 34.7465,
    "to_lon": -92.2896,
    "miles": 2123,
    "hours": 38,
    "mins": 36
  },
  {
    "from_slug": "sacramento-ca",
    "from_name": "Sacramento, CA",
    "from_lat": 38.5816,
    "from_lon": -121.4944,
    "to_slug": "denver-co",
    "to_name": "Denver, CO",
    "to_lat": 39.7392,
    "to_lon": -104.9903,
    "miles": 1152,
    "hours": 20,
    "mins": 56
  },
  {
    "from_slug": "sacramento-ca",
    "from_name": "Sacramento, CA",
    "from_lat": 38.5816,
    "from_lon": -121.4944,
    "to_slug": "hartford-ct",
    "to_name": "Hartford, CT",
    "to_lat": 41.7658,
    "to_lon": -72.6734,
    "miles": 3318,
    "hours": 60,
    "mins": 19
  },
  {
    "from_slug": "sacramento-ca",
    "from_name": "Sacramento, CA",
    "from_lat": 38.5816,
    "from_lon": -121.4944,
    "to_slug": "dover-de",
    "to_name": "Dover, DE",
    "to_lat": 39.1582,
    "to_lon": -75.5244,
    "miles": 3180,
    "hours": 57,
    "mins": 49
  },
  {
    "from_slug": "sacramento-ca",
    "from_name": "Sacramento, CA",
    "from_lat": 38.5816,
    "from_lon": -121.4944,
    "to_slug": "tallahassee-fl",
    "to_name": "Tallahassee, FL",
    "to_lat": 30.4383,
    "to_lon": -84.2807,
    "miles": 2829,
    "hours": 51,
    "mins": 26
  },
  {
    "from_slug": "sacramento-ca",
    "from_name": "Sacramento, CA",
    "from_lat": 38.5816,
    "from_lon": -121.4944,
    "to_slug": "atlanta-ga",
    "to_name": "Atlanta, GA",
    "to_lat": 33.749,
    "to_lon": -84.388,
    "miles": 2707,
    "hours": 49,
    "mins": 13
  },
  {
    "from_slug": "sacramento-ca",
    "from_name": "Sacramento, CA",
    "from_lat": 38.5816,
    "from_lon": -121.4944,
    "to_slug": "boise-id",
    "to_name": "Boise, ID",
    "to_lat": 43.615,
    "to_lon": -116.2023,
    "miles": 576,
    "hours": 10,
    "mins": 28
  },
  {
    "from_slug": "sacramento-ca",
    "from_name": "Sacramento, CA",
    "from_lat": 38.5816,
    "from_lon": -121.4944,
    "to_slug": "springfield-il",
    "to_name": "Springfield, IL",
    "to_lat": 39.7817,
    "to_lon": -89.6501,
    "miles": 2208,
    "hours": 40,
    "mins": 8
  },
  {
    "from_slug": "sacramento-ca",
    "from_name": "Sacramento, CA",
    "from_lat": 38.5816,
    "from_lon": -121.4944,
    "to_slug": "indianapolis-in",
    "to_name": "Indianapolis, IN",
    "to_lat": 39.7684,
    "to_lon": -86.1581,
    "miles": 2446,
    "hours": 44,
    "mins": 28
  },
  {
    "from_slug": "sacramento-ca",
    "from_name": "Sacramento, CA",
    "from_lat": 38.5816,
    "from_lon": -121.4944,
    "to_slug": "des-moines-ia",
    "to_name": "Des Moines, IA",
    "to_lat": 41.5868,
    "to_lon": -93.625,
    "miles": 1925,
    "hours": 35,
    "mins": 0
  },
  {
    "from_slug": "sacramento-ca",
    "from_name": "Sacramento, CA",
    "from_lat": 38.5816,
    "from_lon": -121.4944,
    "to_slug": "topeka-ks",
    "to_name": "Topeka, KS",
    "to_lat": 39.0473,
    "to_lon": -95.6752,
    "miles": 1801,
    "hours": 32,
    "mins": 44
  },
  {
    "from_slug": "sacramento-ca",
    "from_name": "Sacramento, CA",
    "from_lat": 38.5816,
    "from_lon": -121.4944,
    "to_slug": "frankfort-ky",
    "to_name": "Frankfort, KY",
    "to_lat": 38.2009,
    "to_lon": -84.8733,
    "miles": 2561,
    "hours": 46,
    "mins": 33
  },
  {
    "from_slug": "sacramento-ca",
    "from_name": "Sacramento, CA",
    "from_lat": 38.5816,
    "from_lon": -121.4944,
    "to_slug": "baton-rouge-la",
    "to_name": "Baton Rouge, LA",
    "to_lat": 30.4515,
    "to_lon": -91.1871,
    "miles": 2346,
    "hours": 42,
    "mins": 39
  },
  {
    "from_slug": "sacramento-ca",
    "from_name": "Sacramento, CA",
    "from_lat": 38.5816,
    "from_lon": -121.4944,
    "to_slug": "augusta-me",
    "to_name": "Augusta, ME",
    "to_lat": 44.3106,
    "to_lon": -69.7795,
    "miles": 3461,
    "hours": 62,
    "mins": 55
  },
  {
    "from_slug": "sacramento-ca",
    "from_name": "Sacramento, CA",
    "from_lat": 38.5816,
    "from_lon": -121.4944,
    "to_slug": "annapolis-md",
    "to_name": "Annapolis, MD",
    "to_lat": 38.9784,
    "to_lon": -76.4922,
    "miles": 3118,
    "hours": 56,
    "mins": 41
  },
  {
    "from_slug": "sacramento-ca",
    "from_name": "Sacramento, CA",
    "from_lat": 38.5816,
    "from_lon": -121.4944,
    "to_slug": "boston-ma",
    "to_name": "Boston, MA",
    "to_lat": 42.3601,
    "to_lon": -71.0589,
    "miles": 3412,
    "hours": 62,
    "mins": 2
  },
  {
    "from_slug": "sacramento-ca",
    "from_name": "Sacramento, CA",
    "from_lat": 38.5816,
    "from_lon": -121.4944,
    "to_slug": "lansing-mi",
    "to_name": "Lansing, MI",
    "to_lat": 42.7325,
    "to_lon": -84.5555,
    "miles": 2524,
    "hours": 45,
    "mins": 53
  },
  {
    "from_slug": "sacramento-ca",
    "from_name": "Sacramento, CA",
    "from_lat": 38.5816,
    "from_lon": -121.4944,
    "to_slug": "saint-paul-mn",
    "to_name": "Saint Paul, MN",
    "to_lat": 44.9537,
    "to_lon": -93.09,
    "miles": 1975,
    "hours": 35,
    "mins": 54
  },
  {
    "from_slug": "sacramento-ca",
    "from_name": "Sacramento, CA",
    "from_lat": 38.5816,
    "from_lon": -121.4944,
    "to_slug": "jackson-ms",
    "to_name": "Jackson, MS",
    "to_lat": 32.2988,
    "to_lon": -90.1848,
    "miles": 2347,
    "hours": 42,
    "mins": 40
  },
  {
    "from_slug": "sacramento-ca",
    "from_name": "Sacramento, CA",
    "from_lat": 38.5816,
    "from_lon": -121.4944,
    "to_slug": "jefferson-city-mo",
    "to_name": "Jefferson City, MO",
    "to_lat": 38.5767,
    "to_lon": -92.1735,
    "miles": 2050,
    "hours": 37,
    "mins": 16
  },
  {
    "from_slug": "sacramento-ca",
    "from_name": "Sacramento, CA",
    "from_lat": 38.5816,
    "from_lon": -121.4944,
    "to_slug": "helena-mt",
    "to_name": "Helena, MT",
    "to_lat": 46.5891,
    "to_lon": -112.0391,
    "miles": 951,
    "hours": 17,
    "mins": 17
  },
  {
    "from_slug": "sacramento-ca",
    "from_name": "Sacramento, CA",
    "from_lat": 38.5816,
    "from_lon": -121.4944,
    "to_slug": "lincoln-ne",
    "to_name": "Lincoln, NE",
    "to_lat": 40.8258,
    "to_lon": -96.6852,
    "miles": 1720,
    "hours": 31,
    "mins": 16
  },
  {
    "from_slug": "sacramento-ca",
    "from_name": "Sacramento, CA",
    "from_lat": 38.5816,
    "from_lon": -121.4944,
    "to_slug": "carson-city-nv",
    "to_name": "Carson City, NV",
    "to_lat": 39.1638,
    "to_lon": -119.7674,
    "miles": 131,
    "hours": 2,
    "mins": 22
  },
  {
    "from_slug": "sacramento-ca",
    "from_name": "Sacramento, CA",
    "from_lat": 38.5816,
    "from_lon": -121.4944,
    "to_slug": "concord-nh",
    "to_name": "Concord, NH",
    "to_lat": 43.2081,
    "to_lon": -71.5376,
    "miles": 3366,
    "hours": 61,
    "mins": 12
  },
  {
    "from_slug": "sacramento-ca",
    "from_name": "Sacramento, CA",
    "from_lat": 38.5816,
    "from_lon": -121.4944,
    "to_slug": "trenton-nj",
    "to_name": "Trenton, NJ",
    "to_lat": 40.2206,
    "to_lon": -74.7597,
    "miles": 3209,
    "hours": 58,
    "mins": 20
  },
  {
    "from_slug": "sacramento-ca",
    "from_name": "Sacramento, CA",
    "from_lat": 38.5816,
    "from_lon": -121.4944,
    "to_slug": "santa-fe-nm",
    "to_name": "Santa Fe, NM",
    "to_lat": 35.687,
    "to_lon": -105.9378,
    "miles": 1142,
    "hours": 20,
    "mins": 45
  },
  {
    "from_slug": "sacramento-ca",
    "from_name": "Sacramento, CA",
    "from_lat": 38.5816,
    "from_lon": -121.4944,
    "to_slug": "albany-ny",
    "to_name": "Albany, NY",
    "to_lat": 42.6526,
    "to_lon": -73.7562,
    "miles": 3232,
    "hours": 58,
    "mins": 45
  },
  {
    "from_slug": "sacramento-ca",
    "from_name": "Sacramento, CA",
    "from_lat": 38.5816,
    "from_lon": -121.4944,
    "to_slug": "raleigh-nc",
    "to_name": "Raleigh, NC",
    "to_lat": 35.7796,
    "to_lon": -78.6382,
    "miles": 3049,
    "hours": 55,
    "mins": 26
  },
  {
    "from_slug": "sacramento-ca",
    "from_name": "Sacramento, CA",
    "from_lat": 38.5816,
    "from_lon": -121.4944,
    "to_slug": "bismarck-nd",
    "to_name": "Bismarck, ND",
    "to_lat": 46.8083,
    "to_lon": -100.7837,
    "miles": 1547,
    "hours": 28,
    "mins": 7
  },
  {
    "from_slug": "sacramento-ca",
    "from_name": "Sacramento, CA",
    "from_lat": 38.5816,
    "from_lon": -121.4944,
    "to_slug": "columbus-oh",
    "to_name": "Columbus, OH",
    "to_lat": 39.9612,
    "to_lon": -82.9988,
    "miles": 2658,
    "hours": 48,
    "mins": 19
  },
  {
    "from_slug": "sacramento-ca",
    "from_name": "Sacramento, CA",
    "from_lat": 38.5816,
    "from_lon": -121.4944,
    "to_slug": "oklahoma-city-ok",
    "to_name": "Oklahoma City, OK",
    "to_lat": 35.4676,
    "to_lon": -97.5164,
    "miles": 1737,
    "hours": 31,
    "mins": 34
  },
  {
    "from_slug": "sacramento-ca",
    "from_name": "Sacramento, CA",
    "from_lat": 38.5816,
    "from_lon": -121.4944,
    "to_slug": "salem-or",
    "to_name": "Salem, OR",
    "to_lat": 44.9429,
    "to_lon": -123.0351,
    "miles": 580,
    "hours": 10,
    "mins": 32
  },
  {
    "from_slug": "sacramento-ca",
    "from_name": "Sacramento, CA",
    "from_lat": 38.5816,
    "from_lon": -121.4944,
    "to_slug": "harrisburg-pa",
    "to_name": "Harrisburg, PA",
    "to_lat": 40.2732,
    "to_lon": -76.8867,
    "miles": 3065,
    "hours": 55,
    "mins": 43
  },
  {
    "from_slug": "sacramento-ca",
    "from_name": "Sacramento, CA",
    "from_lat": 38.5816,
    "from_lon": -121.4944,
    "to_slug": "providence-ri",
    "to_name": "Providence, RI",
    "to_lat": 41.824,
    "to_lon": -71.4128,
    "miles": 3399,
    "hours": 61,
    "mins": 47
  },
  {
    "from_slug": "sacramento-ca",
    "from_name": "Sacramento, CA",
    "from_lat": 38.5816,
    "from_lon": -121.4944,
    "to_slug": "columbia-sc",
    "to_name": "Columbia, SC",
    "to_lat": 34.0007,
    "to_lon": -81.0348,
    "miles": 2934,
    "hours": 53,
    "mins": 20
  },
  {
    "from_slug": "sacramento-ca",
    "from_name": "Sacramento, CA",
    "from_lat": 38.5816,
    "from_lon": -121.4944,
    "to_slug": "pierre-sd",
    "to_name": "Pierre, SD",
    "to_lat": 44.3683,
    "to_lon": -100.351,
    "miles": 1509,
    "hours": 27,
    "mins": 26
  },
  {
    "from_slug": "sacramento-ca",
    "from_name": "Sacramento, CA",
    "from_lat": 38.5816,
    "from_lon": -121.4944,
    "to_slug": "nashville-tn",
    "to_name": "Nashville, TN",
    "to_lat": 36.1627,
    "to_lon": -86.7816,
    "miles": 2472,
    "hours": 44,
    "mins": 56
  },
  {
    "from_slug": "sacramento-ca",
    "from_name": "Sacramento, CA",
    "from_lat": 38.5816,
    "from_lon": -121.4944,
    "to_slug": "austin-tx",
    "to_name": "Austin, TX",
    "to_lat": 30.2672,
    "to_lon": -97.7431,
    "miles": 1904,
    "hours": 34,
    "mins": 37
  },
  {
    "from_slug": "sacramento-ca",
    "from_name": "Sacramento, CA",
    "from_lat": 38.5816,
    "from_lon": -121.4944,
    "to_slug": "salt-lake-city-ut",
    "to_name": "Salt Lake City, UT",
    "to_lat": 40.7608,
    "to_lon": -111.891,
    "miles": 691,
    "hours": 12,
    "mins": 33
  },
  {
    "from_slug": "sacramento-ca",
    "from_name": "Sacramento, CA",
    "from_lat": 38.5816,
    "from_lon": -121.4944,
    "to_slug": "montpelier-vt",
    "to_name": "Montpelier, VT",
    "to_lat": 44.2601,
    "to_lon": -72.5754,
    "miles": 3284,
    "hours": 59,
    "mins": 42
  },
  {
    "from_slug": "sacramento-ca",
    "from_name": "Sacramento, CA",
    "from_lat": 38.5816,
    "from_lon": -121.4944,
    "to_slug": "richmond-va",
    "to_name": "Richmond, VA",
    "to_lat": 37.5407,
    "to_lon": -77.436,
    "miles": 3087,
    "hours": 56,
    "mins": 7
  },
  {
    "from_slug": "sacramento-ca",
    "from_name": "Sacramento, CA",
    "from_lat": 38.5816,
    "from_lon": -121.4944,
    "to_slug": "olympia-wa",
    "to_name": "Olympia, WA",
    "to_lat": 47.0379,
    "to_lon": -122.9007,
    "miles": 765,
    "hours": 13,
    "mins": 54
  },
  {
    "from_slug": "sacramento-ca",
    "from_name": "Sacramento, CA",
    "from_lat": 38.5816,
    "from_lon": -121.4944,
    "to_slug": "charleston-wv",
    "to_name": "Charleston, WV",
    "to_lat": 38.3498,
    "to_lon": -81.6326,
    "miles": 2781,
    "hours": 50,
    "mins": 33
  },
  {
    "from_slug": "sacramento-ca",
    "from_name": "Sacramento, CA",
    "from_lat": 38.5816,
    "from_lon": -121.4944,
    "to_slug": "madison-wi",
    "to_name": "Madison, WI",
    "to_lat": 43.0731,
    "to_lon": -89.4012,
    "miles": 2204,
    "hours": 40,
    "mins": 4
  },
  {
    "from_slug": "sacramento-ca",
    "from_name": "Sacramento, CA",
    "from_lat": 38.5816,
    "from_lon": -121.4944,
    "to_slug": "cheyenne-wy",
    "to_name": "Cheyenne, WY",
    "to_lat": 41.14,
    "to_lon": -104.8202,
    "miles": 1170,
    "hours": 21,
    "mins": 16
  },
  {
    "from_slug": "denver-co",
    "from_name": "Denver, CO",
    "from_lat": 39.7392,
    "from_lon": -104.9903,
    "to_slug": "montgomery-al",
    "to_name": "Montgomery, AL",
    "to_lat": 32.3792,
    "to_lon": -86.3077,
    "miles": 1505,
    "hours": 27,
    "mins": 21
  },
  {
    "from_slug": "denver-co",
    "from_name": "Denver, CO",
    "from_lat": 39.7392,
    "from_lon": -104.9903,
    "to_slug": "juneau-ak",
    "to_name": "Juneau, AK",
    "to_lat": 58.3019,
    "to_lon": -134.4197,
    "miles": 2369,
    "hours": 43,
    "mins": 4
  },
  {
    "from_slug": "denver-co",
    "from_name": "Denver, CO",
    "from_lat": 39.7392,
    "from_lon": -104.9903,
    "to_slug": "phoenix-az",
    "to_name": "Phoenix, AZ",
    "to_lat": 33.4484,
    "to_lon": -112.074,
    "miles": 761,
    "hours": 13,
    "mins": 50
  },
  {
    "from_slug": "denver-co",
    "from_name": "Denver, CO",
    "from_lat": 39.7392,
    "from_lon": -104.9903,
    "to_slug": "little-rock-ar",
    "to_name": "Little Rock, AR",
    "to_lat": 34.7465,
    "to_lon": -92.2896,
    "miles": 1011,
    "hours": 18,
    "mins": 22
  },
  {
    "from_slug": "denver-co",
    "from_name": "Denver, CO",
    "from_lat": 39.7392,
    "from_lon": -104.9903,
    "to_slug": "sacramento-ca",
    "to_name": "Sacramento, CA",
    "to_lat": 38.5816,
    "to_lon": -121.4944,
    "miles": 1152,
    "hours": 20,
    "mins": 56
  },
  {
    "from_slug": "denver-co",
    "from_name": "Denver, CO",
    "from_lat": 39.7392,
    "from_lon": -104.9903,
    "to_slug": "hartford-ct",
    "to_name": "Hartford, CT",
    "to_lat": 41.7658,
    "to_lon": -72.6734,
    "miles": 2193,
    "hours": 39,
    "mins": 52
  },
  {
    "from_slug": "denver-co",
    "from_name": "Denver, CO",
    "from_lat": 39.7392,
    "from_lon": -104.9903,
    "to_slug": "dover-de",
    "to_name": "Dover, DE",
    "to_lat": 39.1582,
    "to_lon": -75.5244,
    "miles": 2035,
    "hours": 37,
    "mins": 0
  },
  {
    "from_slug": "denver-co",
    "from_name": "Denver, CO",
    "from_lat": 39.7392,
    "from_lon": -104.9903,
    "to_slug": "tallahassee-fl",
    "to_name": "Tallahassee, FL",
    "to_lat": 30.4383,
    "to_lon": -84.2807,
    "miles": 1730,
    "hours": 31,
    "mins": 27
  },
  {
    "from_slug": "denver-co",
    "from_name": "Denver, CO",
    "from_lat": 39.7392,
    "from_lon": -104.9903,
    "to_slug": "atlanta-ga",
    "to_name": "Atlanta, GA",
    "to_lat": 33.749,
    "to_lon": -84.388,
    "miles": 1573,
    "hours": 28,
    "mins": 36
  },
  {
    "from_slug": "denver-co",
    "from_name": "Denver, CO",
    "from_lat": 39.7392,
    "from_lon": -104.9903,
    "to_slug": "boise-id",
    "to_name": "Boise, ID",
    "to_lat": 43.615,
    "to_lon": -116.2023,
    "miles": 827,
    "hours": 15,
    "mins": 2
  },
  {
    "from_slug": "denver-co",
    "from_name": "Denver, CO",
    "from_lat": 39.7392,
    "from_lon": -104.9903,
    "to_slug": "springfield-il",
    "to_name": "Springfield, IL",
    "to_lat": 39.7817,
    "to_lon": -89.6501,
    "miles": 1057,
    "hours": 19,
    "mins": 13
  },
  {
    "from_slug": "denver-co",
    "from_name": "Denver, CO",
    "from_lat": 39.7392,
    "from_lon": -104.9903,
    "to_slug": "indianapolis-in",
    "to_name": "Indianapolis, IN",
    "to_lat": 39.7684,
    "to_lon": -86.1581,
    "miles": 1298,
    "hours": 23,
    "mins": 36
  },
  {
    "from_slug": "denver-co",
    "from_name": "Denver, CO",
    "from_lat": 39.7392,
    "from_lon": -104.9903,
    "to_slug": "des-moines-ia",
    "to_name": "Des Moines, IA",
    "to_lat": 41.5868,
    "to_lon": -93.625,
    "miles": 791,
    "hours": 14,
    "mins": 22
  },
  {
    "from_slug": "denver-co",
    "from_name": "Denver, CO",
    "from_lat": 39.7392,
    "from_lon": -104.9903,
    "to_slug": "topeka-ks",
    "to_name": "Topeka, KS",
    "to_lat": 39.0473,
    "to_lon": -95.6752,
    "miles": 649,
    "hours": 11,
    "mins": 48
  },
  {
    "from_slug": "denver-co",
    "from_name": "Denver, CO",
    "from_lat": 39.7392,
    "from_lon": -104.9903,
    "to_slug": "frankfort-ky",
    "to_name": "Frankfort, KY",
    "to_lat": 38.2009,
    "to_lon": -84.8733,
    "miles": 1408,
    "hours": 25,
    "mins": 36
  },
  {
    "from_slug": "denver-co",
    "from_name": "Denver, CO",
    "from_lat": 39.7392,
    "from_lon": -104.9903,
    "to_slug": "baton-rouge-la",
    "to_name": "Baton Rouge, LA",
    "to_lat": 30.4515,
    "to_lon": -91.1871,
    "miles": 1310,
    "hours": 23,
    "mins": 49
  },
  {
    "from_slug": "denver-co",
    "from_name": "Denver, CO",
    "from_lat": 39.7392,
    "from_lon": -104.9903,
    "to_slug": "augusta-me",
    "to_name": "Augusta, ME",
    "to_lat": 44.3106,
    "to_lon": -69.7795,
    "miles": 2366,
    "hours": 43,
    "mins": 1
  },
  {
    "from_slug": "denver-co",
    "from_name": "Denver, CO",
    "from_lat": 39.7392,
    "from_lon": -104.9903,
    "to_slug": "annapolis-md",
    "to_name": "Annapolis, MD",
    "to_lat": 38.9784,
    "to_lon": -76.4922,
    "miles": 1972,
    "hours": 35,
    "mins": 51
  },
  {
    "from_slug": "denver-co",
    "from_name": "Denver, CO",
    "from_lat": 39.7392,
    "from_lon": -104.9903,
    "to_slug": "boston-ma",
    "to_name": "Boston, MA",
    "to_lat": 42.3601,
    "to_lon": -71.0589,
    "miles": 2295,
    "hours": 41,
    "mins": 43
  },
  {
    "from_slug": "denver-co",
    "from_name": "Denver, CO",
    "from_lat": 39.7392,
    "from_lon": -104.9903,
    "to_slug": "lansing-mi",
    "to_name": "Lansing, MI",
    "to_lat": 42.7325,
    "to_lon": -84.5555,
    "miles": 1402,
    "hours": 25,
    "mins": 29
  },
  {
    "from_slug": "denver-co",
    "from_name": "Denver, CO",
    "from_lat": 39.7392,
    "from_lon": -104.9903,
    "to_slug": "saint-paul-mn",
    "to_name": "Saint Paul, MN",
    "to_lat": 44.9537,
    "to_lon": -93.09,
    "miles": 917,
    "hours": 16,
    "mins": 40
  },
  {
    "from_slug": "denver-co",
    "from_name": "Denver, CO",
    "from_lat": 39.7392,
    "from_lon": -104.9903,
    "to_slug": "jackson-ms",
    "to_name": "Jackson, MS",
    "to_lat": 32.2988,
    "to_lon": -90.1848,
    "miles": 1263,
    "hours": 22,
    "mins": 57
  },
  {
    "from_slug": "denver-co",
    "from_name": "Denver, CO",
    "from_lat": 39.7392,
    "from_lon": -104.9903,
    "to_slug": "jefferson-city-mo",
    "to_name": "Jefferson City, MO",
    "to_lat": 38.5767,
    "to_lon": -92.1735,
    "miles": 898,
    "hours": 16,
    "mins": 19
  },
  {
    "from_slug": "denver-co",
    "from_name": "Denver, CO",
    "from_lat": 39.7392,
    "from_lon": -104.9903,
    "to_slug": "helena-mt",
    "to_name": "Helena, MT",
    "to_lat": 46.5891,
    "to_lon": -112.0391,
    "miles": 768,
    "hours": 13,
    "mins": 57
  },
  {
    "from_slug": "denver-co",
    "from_name": "Denver, CO",
    "from_lat": 39.7392,
    "from_lon": -104.9903,
    "to_slug": "lincoln-ne",
    "to_name": "Lincoln, NE",
    "to_lat": 40.8258,
    "to_lon": -96.6852,
    "miles": 577,
    "hours": 10,
    "mins": 29
  },
  {
    "from_slug": "denver-co",
    "from_name": "Denver, CO",
    "from_lat": 39.7392,
    "from_lon": -104.9903,
    "to_slug": "carson-city-nv",
    "to_name": "Carson City, NV",
    "to_lat": 39.1638,
    "to_lon": -119.7674,
    "miles": 1025,
    "hours": 18,
    "mins": 38
  },
  {
    "from_slug": "denver-co",
    "from_name": "Denver, CO",
    "from_lat": 39.7392,
    "from_lon": -104.9903,
    "to_slug": "concord-nh",
    "to_name": "Concord, NH",
    "to_lat": 43.2081,
    "to_lon": -71.5376,
    "miles": 2257,
    "hours": 41,
    "mins": 2
  },
  {
    "from_slug": "denver-co",
    "from_name": "Denver, CO",
    "from_lat": 39.7392,
    "from_lon": -104.9903,
    "to_slug": "trenton-nj",
    "to_name": "Trenton, NJ",
    "to_lat": 40.2206,
    "to_lon": -74.7597,
    "miles": 2071,
    "hours": 37,
    "mins": 39
  },
  {
    "from_slug": "denver-co",
    "from_name": "Denver, CO",
    "from_lat": 39.7392,
    "from_lon": -104.9903,
    "to_slug": "santa-fe-nm",
    "to_name": "Santa Fe, NM",
    "to_lat": 35.687,
    "to_lon": -105.9378,
    "miles": 370,
    "hours": 6,
    "mins": 43
  },
  {
    "from_slug": "denver-co",
    "from_name": "Denver, CO",
    "from_lat": 39.7392,
    "from_lon": -104.9903,
    "to_slug": "albany-ny",
    "to_name": "Albany, NY",
    "to_lat": 42.6526,
    "to_lon": -73.7562,
    "miles": 2115,
    "hours": 38,
    "mins": 27
  },
  {
    "from_slug": "denver-co",
    "from_name": "Denver, CO",
    "from_lat": 39.7392,
    "from_lon": -104.9903,
    "to_slug": "raleigh-nc",
    "to_name": "Raleigh, NC",
    "to_lat": 35.7796,
    "to_lon": -78.6382,
    "miles": 1897,
    "hours": 34,
    "mins": 29
  },
  {
    "from_slug": "denver-co",
    "from_name": "Denver, CO",
    "from_lat": 39.7392,
    "from_lon": -104.9903,
    "to_slug": "bismarck-nd",
    "to_name": "Bismarck, ND",
    "to_lat": 46.8083,
    "to_lon": -100.7837,
    "miles": 691,
    "hours": 12,
    "mins": 33
  },
  {
    "from_slug": "denver-co",
    "from_name": "Denver, CO",
    "from_lat": 39.7392,
    "from_lon": -104.9903,
    "to_slug": "columbus-oh",
    "to_name": "Columbus, OH",
    "to_lat": 39.9612,
    "to_lon": -82.9988,
    "miles": 1512,
    "hours": 27,
    "mins": 29
  },
  {
    "from_slug": "denver-co",
    "from_name": "Denver, CO",
    "from_lat": 39.7392,
    "from_lon": -104.9903,
    "to_slug": "oklahoma-city-ok",
    "to_name": "Oklahoma City, OK",
    "to_lat": 35.4676,
    "to_lon": -97.5164,
    "miles": 655,
    "hours": 11,
    "mins": 54
  },
  {
    "from_slug": "denver-co",
    "from_name": "Denver, CO",
    "from_lat": 39.7392,
    "from_lon": -104.9903,
    "to_slug": "salem-or",
    "to_name": "Salem, OR",
    "to_lat": 44.9429,
    "to_lon": -123.0351,
    "miles": 1282,
    "hours": 23,
    "mins": 18
  },
  {
    "from_slug": "denver-co",
    "from_name": "Denver, CO",
    "from_lat": 39.7392,
    "from_lon": -104.9903,
    "to_slug": "harrisburg-pa",
    "to_name": "Harrisburg, PA",
    "to_lat": 40.2732,
    "to_lon": -76.8867,
    "miles": 1926,
    "hours": 35,
    "mins": 1
  },
  {
    "from_slug": "denver-co",
    "from_name": "Denver, CO",
    "from_lat": 39.7392,
    "from_lon": -104.9903,
    "to_slug": "providence-ri",
    "to_name": "Providence, RI",
    "to_lat": 41.824,
    "to_lon": -71.4128,
    "miles": 2276,
    "hours": 41,
    "mins": 22
  },
  {
    "from_slug": "denver-co",
    "from_name": "Denver, CO",
    "from_lat": 39.7392,
    "from_lon": -104.9903,
    "to_slug": "columbia-sc",
    "to_name": "Columbia, SC",
    "to_lat": 34.0007,
    "to_lon": -81.0348,
    "miles": 1790,
    "hours": 32,
    "mins": 32
  },
  {
    "from_slug": "denver-co",
    "from_name": "Denver, CO",
    "from_lat": 39.7392,
    "from_lon": -104.9903,
    "to_slug": "pierre-sd",
    "to_name": "Pierre, SD",
    "to_lat": 44.3683,
    "to_lon": -100.351,
    "miles": 518,
    "hours": 9,
    "mins": 25
  },
  {
    "from_slug": "denver-co",
    "from_name": "Denver, CO",
    "from_lat": 39.7392,
    "from_lon": -104.9903,
    "to_slug": "nashville-tn",
    "to_name": "Nashville, TN",
    "to_lat": 36.1627,
    "to_lon": -86.7816,
    "miles": 1326,
    "hours": 24,
    "mins": 6
  },
  {
    "from_slug": "denver-co",
    "from_name": "Denver, CO",
    "from_lat": 39.7392,
    "from_lon": -104.9903,
    "to_slug": "austin-tx",
    "to_name": "Austin, TX",
    "to_lat": 30.2672,
    "to_lon": -97.7431,
    "miles": 1003,
    "hours": 18,
    "mins": 14
  },
  {
    "from_slug": "denver-co",
    "from_name": "Denver, CO",
    "from_lat": 39.7392,
    "from_lon": -104.9903,
    "to_slug": "salt-lake-city-ut",
    "to_name": "Salt Lake City, UT",
    "to_lat": 40.7608,
    "to_lon": -111.891,
    "miles": 481,
    "hours": 8,
    "mins": 44
  },
  {
    "from_slug": "denver-co",
    "from_name": "Denver, CO",
    "from_lat": 39.7392,
    "from_lon": -104.9903,
    "to_slug": "montpelier-vt",
    "to_name": "Montpelier, VT",
    "to_lat": 44.2601,
    "to_lon": -72.5754,
    "miles": 2186,
    "hours": 39,
    "mins": 44
  },
  {
    "from_slug": "denver-co",
    "from_name": "Denver, CO",
    "from_lat": 39.7392,
    "from_lon": -104.9903,
    "to_slug": "richmond-va",
    "to_name": "Richmond, VA",
    "to_lat": 37.5407,
    "to_lon": -77.436,
    "miles": 1935,
    "hours": 35,
    "mins": 10
  },
  {
    "from_slug": "denver-co",
    "from_name": "Denver, CO",
    "from_lat": 39.7392,
    "from_lon": -104.9903,
    "to_slug": "olympia-wa",
    "to_name": "Olympia, WA",
    "to_lat": 47.0379,
    "to_lon": -122.9007,
    "miles": 1335,
    "hours": 24,
    "mins": 16
  },
  {
    "from_slug": "denver-co",
    "from_name": "Denver, CO",
    "from_lat": 39.7392,
    "from_lon": -104.9903,
    "to_slug": "charleston-wv",
    "to_name": "Charleston, WV",
    "to_lat": 38.3498,
    "to_lon": -81.6326,
    "miles": 1629,
    "hours": 29,
    "mins": 37
  },
  {
    "from_slug": "denver-co",
    "from_name": "Denver, CO",
    "from_lat": 39.7392,
    "from_lon": -104.9903,
    "to_slug": "madison-wi",
    "to_name": "Madison, WI",
    "to_lat": 43.0731,
    "to_lon": -89.4012,
    "miles": 1090,
    "hours": 19,
    "mins": 49
  },
  {
    "from_slug": "denver-co",
    "from_name": "Denver, CO",
    "from_lat": 39.7392,
    "from_lon": -104.9903,
    "to_slug": "cheyenne-wy",
    "to_name": "Cheyenne, WY",
    "to_lat": 41.14,
    "to_lon": -104.8202,
    "miles": 126,
    "hours": 2,
    "mins": 17
  },
  {
    "from_slug": "hartford-ct",
    "from_name": "Hartford, CT",
    "from_lat": 41.7658,
    "from_lon": -72.6734,
    "to_slug": "montgomery-al",
    "to_name": "Montgomery, AL",
    "to_lat": 32.3792,
    "to_lon": -86.3077,
    "miles": 1287,
    "hours": 23,
    "mins": 23
  },
  {
    "from_slug": "hartford-ct",
    "from_name": "Hartford, CT",
    "from_lat": 41.7658,
    "from_lon": -72.6734,
    "to_slug": "juneau-ak",
    "to_name": "Juneau, AK",
    "to_lat": 58.3019,
    "to_lon": -134.4197,
    "miles": 3702,
    "hours": 67,
    "mins": 18
  },
  {
    "from_slug": "hartford-ct",
    "from_name": "Hartford, CT",
    "from_lat": 41.7658,
    "from_lon": -72.6734,
    "to_slug": "phoenix-az",
    "to_name": "Phoenix, AZ",
    "to_lat": 33.4484,
    "to_lon": -112.074,
    "miles": 2874,
    "hours": 52,
    "mins": 15
  },
  {
    "from_slug": "hartford-ct",
    "from_name": "Hartford, CT",
    "from_lat": 41.7658,
    "from_lon": -72.6734,
    "to_slug": "little-rock-ar",
    "to_name": "Little Rock, AR",
    "to_lat": 34.7465,
    "to_lon": -92.2896,
    "miles": 1515,
    "hours": 27,
    "mins": 32
  },
  {
    "from_slug": "hartford-ct",
    "from_name": "Hartford, CT",
    "from_lat": 41.7658,
    "from_lon": -72.6734,
    "to_slug": "sacramento-ca",
    "to_name": "Sacramento, CA",
    "to_lat": 38.5816,
    "to_lon": -121.4944,
    "miles": 3318,
    "hours": 60,
    "mins": 19
  },
  {
    "from_slug": "hartford-ct",
    "from_name": "Hartford, CT",
    "from_lat": 41.7658,
    "from_lon": -72.6734,
    "to_slug": "denver-co",
    "to_name": "Denver, CO",
    "to_lat": 39.7392,
    "to_lon": -104.9903,
    "miles": 2193,
    "hours": 39,
    "mins": 52
  },
  {
    "from_slug": "hartford-ct",
    "from_name": "Hartford, CT",
    "from_lat": 41.7658,
    "from_lon": -72.6734,
    "to_slug": "dover-de",
    "to_name": "Dover, DE",
    "to_lat": 39.1582,
    "to_lon": -75.5244,
    "miles": 304,
    "hours": 5,
    "mins": 31
  },
  {
    "from_slug": "hartford-ct",
    "from_name": "Hartford, CT",
    "from_lat": 41.7658,
    "from_lon": -72.6734,
    "to_slug": "tallahassee-fl",
    "to_name": "Tallahassee, FL",
    "to_lat": 30.4383,
    "to_lon": -84.2807,
    "miles": 1318,
    "hours": 23,
    "mins": 57
  },
  {
    "from_slug": "hartford-ct",
    "from_name": "Hartford, CT",
    "from_lat": 41.7658,
    "from_lon": -72.6734,
    "to_slug": "atlanta-ga",
    "to_name": "Atlanta, GA",
    "to_lat": 33.749,
    "to_lon": -84.388,
    "miles": 1098,
    "hours": 19,
    "mins": 57
  },
  {
    "from_slug": "hartford-ct",
    "from_name": "Hartford, CT",
    "from_lat": 41.7658,
    "from_lon": -72.6734,
    "to_slug": "boise-id",
    "to_name": "Boise, ID",
    "to_lat": 43.615,
    "to_lon": -116.2023,
    "miles": 2845,
    "hours": 51,
    "mins": 43
  },
  {
    "from_slug": "hartford-ct",
    "from_name": "Hartford, CT",
    "from_lat": 41.7658,
    "from_lon": -72.6734,
    "to_slug": "springfield-il",
    "to_name": "Springfield, IL",
    "to_lat": 39.7817,
    "to_lon": -89.6501,
    "miles": 1166,
    "hours": 21,
    "mins": 11
  },
  {
    "from_slug": "hartford-ct",
    "from_name": "Hartford, CT",
    "from_lat": 41.7658,
    "from_lon": -72.6734,
    "to_slug": "indianapolis-in",
    "to_name": "Indianapolis, IN",
    "to_lat": 39.7684,
    "to_lon": -86.1581,
    "miles": 933,
    "hours": 16,
    "mins": 57
  },
  {
    "from_slug": "hartford-ct",
    "from_name": "Hartford, CT",
    "from_lat": 41.7658,
    "from_lon": -72.6734,
    "to_slug": "des-moines-ia",
    "to_name": "Des Moines, IA",
    "to_lat": 41.5868,
    "to_lon": -93.625,
    "miles": 1402,
    "hours": 25,
    "mins": 29
  },
  {
    "from_slug": "hartford-ct",
    "from_name": "Hartford, CT",
    "from_lat": 41.7658,
    "from_lon": -72.6734,
    "to_slug": "topeka-ks",
    "to_name": "Topeka, KS",
    "to_lat": 39.0473,
    "to_lon": -95.6752,
    "miles": 1587,
    "hours": 28,
    "mins": 51
  },
  {
    "from_slug": "hartford-ct",
    "from_name": "Hartford, CT",
    "from_lat": 41.7658,
    "from_lon": -72.6734,
    "to_slug": "frankfort-ky",
    "to_name": "Frankfort, KY",
    "to_lat": 38.2009,
    "to_lon": -84.8733,
    "miles": 897,
    "hours": 16,
    "mins": 18
  },
  {
    "from_slug": "hartford-ct",
    "from_name": "Hartford, CT",
    "from_lat": 41.7658,
    "from_lon": -72.6734,
    "to_slug": "baton-rouge-la",
    "to_name": "Baton Rouge, LA",
    "to_lat": 30.4515,
    "to_lon": -91.1871,
    "miles": 1678,
    "hours": 30,
    "mins": 30
  },
  {
    "from_slug": "hartford-ct",
    "from_name": "Hartford, CT",
    "from_lat": 41.7658,
    "from_lon": -72.6734,
    "to_slug": "augusta-me",
    "to_name": "Augusta, ME",
    "to_lat": 44.3106,
    "to_lon": -69.7795,
    "miles": 297,
    "hours": 5,
    "mins": 24
  },
  {
    "from_slug": "hartford-ct",
    "from_name": "Hartford, CT",
    "from_lat": 41.7658,
    "from_lon": -72.6734,
    "to_slug": "annapolis-md",
    "to_name": "Annapolis, MD",
    "to_lat": 38.9784,
    "to_lon": -76.4922,
    "miles": 361,
    "hours": 6,
    "mins": 33
  },
  {
    "from_slug": "hartford-ct",
    "from_name": "Hartford, CT",
    "from_lat": 41.7658,
    "from_lon": -72.6734,
    "to_slug": "boston-ma",
    "to_name": "Boston, MA",
    "to_lat": 42.3601,
    "to_lon": -71.0589,
    "miles": 120,
    "hours": 2,
    "mins": 10
  },
  {
    "from_slug": "hartford-ct",
    "from_name": "Hartford, CT",
    "from_lat": 41.7658,
    "from_lon": -72.6734,
    "to_slug": "lansing-mi",
    "to_name": "Lansing, MI",
    "to_lat": 42.7325,
    "to_lon": -84.5555,
    "miles": 794,
    "hours": 14,
    "mins": 26
  },
  {
    "from_slug": "hartford-ct",
    "from_name": "Hartford, CT",
    "from_lat": 41.7658,
    "from_lon": -72.6734,
    "to_slug": "saint-paul-mn",
    "to_name": "Saint Paul, MN",
    "to_lat": 44.9537,
    "to_lon": -93.09,
    "miles": 1359,
    "hours": 24,
    "mins": 42
  },
  {
    "from_slug": "hartford-ct",
    "from_name": "Hartford, CT",
    "from_lat": 41.7658,
    "from_lon": -72.6734,
    "to_slug": "jackson-ms",
    "to_name": "Jackson, MS",
    "to_lat": 32.2988,
    "to_lon": -90.1848,
    "miles": 1511,
    "hours": 27,
    "mins": 28
  },
  {
    "from_slug": "hartford-ct",
    "from_name": "Hartford, CT",
    "from_lat": 41.7658,
    "from_lon": -72.6734,
    "to_slug": "jefferson-city-mo",
    "to_name": "Jefferson City, MO",
    "to_lat": 38.5767,
    "to_lon": -92.1735,
    "miles": 1365,
    "hours": 24,
    "mins": 49
  },
  {
    "from_slug": "hartford-ct",
    "from_name": "Hartford, CT",
    "from_lat": 41.7658,
    "from_lon": -72.6734,
    "to_slug": "helena-mt",
    "to_name": "Helena, MT",
    "to_lat": 46.5891,
    "to_lon": -112.0391,
    "miles": 2545,
    "hours": 46,
    "mins": 16
  },
  {
    "from_slug": "hartford-ct",
    "from_name": "Hartford, CT",
    "from_lat": 41.7658,
    "from_lon": -72.6734,
    "to_slug": "lincoln-ne",
    "to_name": "Lincoln, NE",
    "to_lat": 40.8258,
    "to_lon": -96.6852,
    "miles": 1617,
    "hours": 29,
    "mins": 23
  },
  {
    "from_slug": "hartford-ct",
    "from_name": "Hartford, CT",
    "from_lat": 41.7658,
    "from_lon": -72.6734,
    "to_slug": "carson-city-nv",
    "to_name": "Carson City, NV",
    "to_lat": 39.1638,
    "to_lon": -119.7674,
    "miles": 3186,
    "hours": 57,
    "mins": 55
  },
  {
    "from_slug": "hartford-ct",
    "from_name": "Hartford, CT",
    "from_lat": 41.7658,
    "from_lon": -72.6734,
    "to_slug": "concord-nh",
    "to_name": "Concord, NH",
    "to_lat": 43.2081,
    "to_lon": -71.5376,
    "miles": 149,
    "hours": 2,
    "mins": 42
  },
  {
    "from_slug": "hartford-ct",
    "from_name": "Hartford, CT",
    "from_lat": 41.7658,
    "from_lon": -72.6734,
    "to_slug": "trenton-nj",
    "to_name": "Trenton, NJ",
    "to_lat": 40.2206,
    "to_lon": -74.7597,
    "miles": 198,
    "hours": 3,
    "mins": 36
  },
  {
    "from_slug": "hartford-ct",
    "from_name": "Hartford, CT",
    "from_lat": 41.7658,
    "from_lon": -72.6734,
    "to_slug": "santa-fe-nm",
    "to_name": "Santa Fe, NM",
    "to_lat": 35.687,
    "to_lon": -105.9378,
    "miles": 2378,
    "hours": 43,
    "mins": 14
  },
  {
    "from_slug": "hartford-ct",
    "from_name": "Hartford, CT",
    "from_lat": 41.7658,
    "from_lon": -72.6734,
    "to_slug": "albany-ny",
    "to_name": "Albany, NY",
    "to_lat": 42.6526,
    "to_lon": -73.7562,
    "miles": 107,
    "hours": 1,
    "mins": 56
  },
  {
    "from_slug": "hartford-ct",
    "from_name": "Hartford, CT",
    "from_lat": 41.7658,
    "from_lon": -72.6734,
    "to_slug": "raleigh-nc",
    "to_name": "Raleigh, NC",
    "to_lat": 35.7796,
    "to_lon": -78.6382,
    "miles": 680,
    "hours": 12,
    "mins": 21
  },
  {
    "from_slug": "hartford-ct",
    "from_name": "Hartford, CT",
    "from_lat": 41.7658,
    "from_lon": -72.6734,
    "to_slug": "bismarck-nd",
    "to_name": "Bismarck, ND",
    "to_lat": 46.8083,
    "to_lon": -100.7837,
    "miles": 1852,
    "hours": 33,
    "mins": 40
  },
  {
    "from_slug": "hartford-ct",
    "from_name": "Hartford, CT",
    "from_lat": 41.7658,
    "from_lon": -72.6734,
    "to_slug": "columbus-oh",
    "to_name": "Columbus, OH",
    "to_lat": 39.9612,
    "to_lon": -82.9988,
    "miles": 719,
    "hours": 13,
    "mins": 4
  },
  {
    "from_slug": "hartford-ct",
    "from_name": "Hartford, CT",
    "from_lat": 41.7658,
    "from_lon": -72.6734,
    "to_slug": "oklahoma-city-ok",
    "to_name": "Oklahoma City, OK",
    "to_lat": 35.4676,
    "to_lon": -97.5164,
    "miles": 1825,
    "hours": 33,
    "mins": 10
  },
  {
    "from_slug": "hartford-ct",
    "from_name": "Hartford, CT",
    "from_lat": 41.7658,
    "from_lon": -72.6734,
    "to_slug": "salem-or",
    "to_name": "Salem, OR",
    "to_lat": 44.9429,
    "to_lon": -123.0351,
    "miles": 3248,
    "hours": 59,
    "mins": 3
  },
  {
    "from_slug": "hartford-ct",
    "from_name": "Hartford, CT",
    "from_lat": 41.7658,
    "from_lon": -72.6734,
    "to_slug": "harrisburg-pa",
    "to_name": "Harrisburg, PA",
    "to_lat": 40.2732,
    "to_lon": -76.8867,
    "miles": 315,
    "hours": 5,
    "mins": 43
  },
  {
    "from_slug": "hartford-ct",
    "from_name": "Hartford, CT",
    "from_lat": 41.7658,
    "from_lon": -72.6734,
    "to_slug": "providence-ri",
    "to_name": "Providence, RI",
    "to_lat": 41.824,
    "to_lon": -71.4128,
    "miles": 84,
    "hours": 1,
    "mins": 31
  },
  {
    "from_slug": "hartford-ct",
    "from_name": "Hartford, CT",
    "from_lat": 41.7658,
    "from_lon": -72.6734,
    "to_slug": "columbia-sc",
    "to_name": "Columbia, SC",
    "to_lat": 34.0007,
    "to_lon": -81.0348,
    "miles": 914,
    "hours": 16,
    "mins": 37
  },
  {
    "from_slug": "hartford-ct",
    "from_name": "Hartford, CT",
    "from_lat": 41.7658,
    "from_lon": -72.6734,
    "to_slug": "pierre-sd",
    "to_name": "Pierre, SD",
    "to_lat": 44.3683,
    "to_lon": -100.351,
    "miles": 1822,
    "hours": 33,
    "mins": 7
  },
  {
    "from_slug": "hartford-ct",
    "from_name": "Hartford, CT",
    "from_lat": 41.7658,
    "from_lon": -72.6734,
    "to_slug": "nashville-tn",
    "to_name": "Nashville, TN",
    "to_lat": 36.1627,
    "to_lon": -86.7816,
    "miles": 1104,
    "hours": 20,
    "mins": 4
  },
  {
    "from_slug": "hartford-ct",
    "from_name": "Hartford, CT",
    "from_lat": 41.7658,
    "from_lon": -72.6734,
    "to_slug": "austin-tx",
    "to_name": "Austin, TX",
    "to_lat": 30.2672,
    "to_lon": -97.7431,
    "miles": 2082,
    "hours": 37,
    "mins": 51
  },
  {
    "from_slug": "hartford-ct",
    "from_name": "Hartford, CT",
    "from_lat": 41.7658,
    "from_lon": -72.6734,
    "to_slug": "salt-lake-city-ut",
    "to_name": "Salt Lake City, UT",
    "to_lat": 40.7608,
    "to_lon": -111.891,
    "miles": 2626,
    "hours": 47,
    "mins": 44
  },
  {
    "from_slug": "hartford-ct",
    "from_name": "Hartford, CT",
    "from_lat": 41.7658,
    "from_lon": -72.6734,
    "to_slug": "montpelier-vt",
    "to_name": "Montpelier, VT",
    "to_lat": 44.2601,
    "to_lon": -72.5754,
    "miles": 224,
    "hours": 4,
    "mins": 4
  },
  {
    "from_slug": "hartford-ct",
    "from_name": "Hartford, CT",
    "from_lat": 41.7658,
    "from_lon": -72.6734,
    "to_slug": "richmond-va",
    "to_name": "Richmond, VA",
    "to_lat": 37.5407,
    "to_lon": -77.436,
    "miles": 502,
    "hours": 9,
    "mins": 7
  },
  {
    "from_slug": "hartford-ct",
    "from_name": "Hartford, CT",
    "from_lat": 41.7658,
    "from_lon": -72.6734,
    "to_slug": "olympia-wa",
    "to_name": "Olympia, WA",
    "to_lat": 47.0379,
    "to_lon": -122.9007,
    "miles": 3201,
    "hours": 58,
    "mins": 12
  },
  {
    "from_slug": "hartford-ct",
    "from_name": "Hartford, CT",
    "from_lat": 41.7658,
    "from_lon": -72.6734,
    "to_slug": "charleston-wv",
    "to_name": "Charleston, WV",
    "to_lat": 38.3498,
    "to_lon": -81.6326,
    "miles": 687,
    "hours": 12,
    "mins": 29
  },
  {
    "from_slug": "hartford-ct",
    "from_name": "Hartford, CT",
    "from_lat": 41.7658,
    "from_lon": -72.6734,
    "to_slug": "madison-wi",
    "to_name": "Madison, WI",
    "to_lat": 43.0731,
    "to_lon": -89.4012,
    "miles": 1113,
    "hours": 20,
    "mins": 14
  },
  {
    "from_slug": "hartford-ct",
    "from_name": "Hartford, CT",
    "from_lat": 41.7658,
    "from_lon": -72.6734,
    "to_slug": "cheyenne-wy",
    "to_name": "Cheyenne, WY",
    "to_lat": 41.14,
    "to_lon": -104.8202,
    "miles": 2152,
    "hours": 39,
    "mins": 7
  },
  {
    "from_slug": "dover-de",
    "from_name": "Dover, DE",
    "from_lat": 39.1582,
    "from_lon": -75.5244,
    "to_slug": "montgomery-al",
    "to_name": "Montgomery, AL",
    "to_lat": 32.3792,
    "to_lon": -86.3077,
    "miles": 992,
    "hours": 18,
    "mins": 2
  },
  {
    "from_slug": "dover-de",
    "from_name": "Dover, DE",
    "from_lat": 39.1582,
    "from_lon": -75.5244,
    "to_slug": "juneau-ak",
    "to_name": "Juneau, AK",
    "to_lat": 58.3019,
    "to_lon": -134.4197,
    "miles": 3737,
    "hours": 67,
    "mins": 56
  },
  {
    "from_slug": "dover-de",
    "from_name": "Dover, DE",
    "from_lat": 39.1582,
    "from_lon": -75.5244,
    "to_slug": "phoenix-az",
    "to_name": "Phoenix, AZ",
    "to_lat": 33.4484,
    "to_lon": -112.074,
    "miles": 2676,
    "hours": 48,
    "mins": 39
  },
  {
    "from_slug": "dover-de",
    "from_name": "Dover, DE",
    "from_lat": 39.1582,
    "from_lon": -75.5244,
    "to_slug": "little-rock-ar",
    "to_name": "Little Rock, AR",
    "to_lat": 34.7465,
    "to_lon": -92.2896,
    "miles": 1264,
    "hours": 22,
    "mins": 58
  },
  {
    "from_slug": "dover-de",
    "from_name": "Dover, DE",
    "from_lat": 39.1582,
    "from_lon": -75.5244,
    "to_slug": "sacramento-ca",
    "to_name": "Sacramento, CA",
    "to_lat": 38.5816,
    "to_lon": -121.4944,
    "miles": 3180,
    "hours": 57,
    "mins": 49
  },
  {
    "from_slug": "dover-de",
    "from_name": "Dover, DE",
    "from_lat": 39.1582,
    "from_lon": -75.5244,
    "to_slug": "denver-co",
    "to_name": "Denver, CO",
    "to_lat": 39.7392,
    "to_lon": -104.9903,
    "miles": 2035,
    "hours": 37,
    "mins": 0
  },
  {
    "from_slug": "dover-de",
    "from_name": "Dover, DE",
    "from_lat": 39.1582,
    "from_lon": -75.5244,
    "to_slug": "hartford-ct",
    "to_name": "Hartford, CT",
    "to_lat": 41.7658,
    "to_lon": -72.6734,
    "miles": 304,
    "hours": 5,
    "mins": 31
  },
  {
    "from_slug": "dover-de",
    "from_name": "Dover, DE",
    "from_lat": 39.1582,
    "from_lon": -75.5244,
    "to_slug": "tallahassee-fl",
    "to_name": "Tallahassee, FL",
    "to_lat": 30.4383,
    "to_lon": -84.2807,
    "miles": 1014,
    "hours": 18,
    "mins": 26
  },
  {
    "from_slug": "dover-de",
    "from_name": "Dover, DE",
    "from_lat": 39.1582,
    "from_lon": -75.5244,
    "to_slug": "atlanta-ga",
    "to_name": "Atlanta, GA",
    "to_lat": 33.749,
    "to_lon": -84.388,
    "miles": 803,
    "hours": 14,
    "mins": 35
  },
  {
    "from_slug": "dover-de",
    "from_name": "Dover, DE",
    "from_lat": 39.1582,
    "from_lon": -75.5244,
    "to_slug": "boise-id",
    "to_name": "Boise, ID",
    "to_lat": 43.615,
    "to_lon": -116.2023,
    "miles": 2742,
    "hours": 49,
    "mins": 51
  },
  {
    "from_slug": "dover-de",
    "from_name": "Dover, DE",
    "from_lat": 39.1582,
    "from_lon": -75.5244,
    "to_slug": "springfield-il",
    "to_name": "Springfield, IL",
    "to_lat": 39.7817,
    "to_lon": -89.6501,
    "miles": 980,
    "hours": 17,
    "mins": 49
  },
  {
    "from_slug": "dover-de",
    "from_name": "Dover, DE",
    "from_lat": 39.1582,
    "from_lon": -75.5244,
    "to_slug": "indianapolis-in",
    "to_name": "Indianapolis, IN",
    "to_lat": 39.7684,
    "to_lon": -86.1581,
    "miles": 739,
    "hours": 13,
    "mins": 26
  },
  {
    "from_slug": "dover-de",
    "from_name": "Dover, DE",
    "from_lat": 39.1582,
    "from_lon": -75.5244,
    "to_slug": "des-moines-ia",
    "to_name": "Des Moines, IA",
    "to_lat": 41.5868,
    "to_lon": -93.625,
    "miles": 1255,
    "hours": 22,
    "mins": 49
  },
  {
    "from_slug": "dover-de",
    "from_name": "Dover, DE",
    "from_lat": 39.1582,
    "from_lon": -75.5244,
    "to_slug": "topeka-ks",
    "to_name": "Topeka, KS",
    "to_lat": 39.0473,
    "to_lon": -95.6752,
    "miles": 1401,
    "hours": 25,
    "mins": 28
  },